Fuel Type Code,Station Name,Street Address,Intersection Directions,City,State,ZIP,Plus4,Station Phone,Status Code,Expected Date,Groups With Access Code,Access Days Time,Cards Accepted,BD Blends,NG Fill Type Code,NG PSI,EV Level1 EVSE Num,EV Level2 EVSE Num,EV DC Fast Count,EV Other Info,EV Network,EV Network Web,Geocode Status,Latitude,Longitude,Date Last Confirmed,ID,Updated At,Owner Type Code,Federal Agency ID,Federal Agency Name,Open Date,Hydrogen Status Link,NG Vehicle Class,LPG Primary,E85 Blender Pump,EV Connector Types,Country,Intersection Directions (French),Access Days Time (French),BD Blends (French),Groups With Access Code (French),Hydrogen Is Retail,Access Code,Access Detail Code,Federal Agency Code,Facility Type,CNG Dispenser Num,CNG On-Site Renewable Source,CNG Total Compression Capacity,CNG Storage Capacity,LNG On-Site Renewable Source,E85 Other Ethanol Blends,EV Pricing,EV Pricing (French),LPG Nozzle Types,Hydrogen Pressures,Hydrogen Standards,CNG Fill Type Code,CNG PSI,CNG Vehicle Class,LNG Vehicle Class,EV On-Site Renewable Source,Restricted Access,RD Blends,RD Blends (French),RD Blended with Biodiesel,RD Maximum Biodiesel Level,NPS Unit Name,CNG Station Sells Renewable Natural Gas,LNG Station Sells Renewable Natural Gas,Maximum Vehicle Class,EV Workplace Charging,Funding Sources
CNG,Metropolitan Atlanta Rapid Transit Authority,2424 Piedmont Rd NE,,Atlanta,GA,30324,,,E,,Private - Government only,,,,Q,3000,,,,,,,200-8,33.821911,-84.367461,2/12/2024,45,2025-11-14 21:49:07 UTC,LG,,,12/15/1996,,LD,,,,US,,,,Privé - Réservé au gouvernement,,private,GOVERNMENT,,FLEET_GARAGE,,,30,,,,,,,,,Q,3000,LD,,,,,,,,,,,LD,,
CNG,Metropolitan Atlanta Rapid Transit Authority,1600 Perry Blvd NW,,Atlanta,GA,30318,,,E,,Private - Government only,,,,Q,3600,,,,,,,200-9,33.789934,-84.441488,2/12/2024,1332,2025-11-14 21:49:07 UTC,LG,,,12/15/1996,,HD,,,,US,,,,Privé - Réservé au gouvernement,,private,GOVERNMENT,,FLEET_GARAGE,,,1200,,,,,,,,,Q,3600,HD,,,,,,,,,,,HD,,
LPG,Blossman Gas Inc,1990 Joe Frank Harris Pkwy NW,"4 miles W of I-75 between exit 126 and exit 127, N of Cartersville",Cartersville,GA,30121,,770-386-6268,E,,Public - Call ahead,8am-5pm M-F (full service); 24 hour access with Alliance AutoGas card (self-service),A ALLIANCE Cash Checks D M V,,,,,,,,,,GPS,34.231469,-84.855059,10/11/2024,13597,2025-06-11 19:53:17 UTC,P,,,7/8/1999,,,FALSE,,,US,,,,Public - Appeler à l'avance,,public,CALL,,FUEL_RESELLER,,,,,,,,,ACME QUICK_CONNECT,,,,,,,,FALSE,,,,,,,,HD,,
LPG,Blossman Gas Inc,2635 E Highway 16,"From Highway 29-27, go 7 miles east on Highway 16 toward Senoia",Sharpsburg,GA,30277,,770-253-4344,E,,Public - Call ahead,8am-5pm M-F (full service); 24 hour access with Alliance AutoGas card (self-service),A ALLIANCE Cash Checks D M V,,,,,,,,,,200-9,33.330208,-84.696877,10/11/2024,13602,2025-06-11 19:53:17 UTC,P,,,7/8/1999,,,FALSE,,,US,,,,Public - Appeler à l'avance,,public,CALL,,FUEL_RESELLER,,,,,,,,,ACME QUICK_CONNECT,,,,,,,,FALSE,,,,,,,,HD,,
LPG,Georgia Gas Distributors Inc,1475 Old Chattahoochee Ave,,Atlanta,GA,30318,,404-857-4440,E,,Public,7:30am-4pm M-F,A Cash D M V,,,,,,,,,,200-9,33.795583,-84.416951,10/13/2025,13603,2026-02-02 23:16:24 UTC,P,,,7/8/1999,,,TRUE,,,US,,,,Public,,public,,,FUEL_RESELLER,,,,,,,,,ACME,,,,,,,,FALSE,,,,,,,,HD,,
LPG,Blossman Gas Inc,4319 Mundy Mill Rd,"Off Highway 53 W, 2 miles on left",Oakwood,GA,30566,,770-318-9658,E,,Public - Call ahead,8am-5pm M-F (full service); 24 hour access with Alliance AutoGas card (self-service),A ALLIANCE Cash Checks D M V,,,,,,,,,,GPS,34.25143680939097,-83.89017841,10/11/2024,13618,2025-06-11 19:53:17 UTC,P,,,7/8/1999,,,FALSE,,,US,,,,Public - Appeler à l'avance,,public,CALL,,FLEET_GARAGE,,,,,,,,,ACME QUICK_CONNECT,,,,,,,,FALSE,,,,,,,,HD,,
LPG,Blossman Gas Inc,1375 E Highway 166,East side of Highway 166,Bowdon,GA,30108,,706-587-7283,E,,Public - Call ahead,8am-5pm M-F (full service); 24 hour access with Alliance AutoGas card (self-service),ALLIANCE Cash Checks D M V,,,,,,,,,,200-9,33.560932,-85.225441,10/11/2024,14932,2025-06-11 19:53:17 UTC,P,,,7/8/1999,,,FALSE,,,US,,,,Public - Appeler à l'avance,,public,CALL,,FUEL_RESELLER,,,,,,,,,ACME QUICK_CONNECT,,,,,,,,FALSE,,,,,,,,HD,,
LPG,Blossman Gas Inc,2876 W Point Rd,Off US Highway 29,LaGrange,GA,30240,,706-882-7672,E,,Public - Call ahead,8am-5pm M-F (full service); 24 hour access with Alliance AutoGas card (self-service),ALLIANCE Cash Checks M V,,,,,,,,,,200-9,33.01729,-85.098307,10/11/2024,14937,2025-06-11 19:53:17 UTC,P,,,7/8/1999,,,FALSE,,,US,,,,Public - Appeler à l'avance,,public,CALL,,FUEL_RESELLER,,,,,,,,,ACME QUICK_CONNECT,,,,,,,,FALSE,,,,,,,,HD,,
LPG,Folger Gas - Blue Ridge LLC,4955 Appalachian Hwy,Just north of the Windy Ridge exit on Highway 515,Blue Ridge,GA,30513,,706-632-7606,E,,Public,8am-5pm M-F,A Cash D M V,,,,,,,,,,200-9,34.876234,-84.309163,9/12/2025,15185,2026-02-02 23:16:24 UTC,P,,,7/8/1999,,,TRUE,,,US,,,,Public,,public,,,FUEL_RESELLER,,,,,,,,,ACME,,,,,,,,FALSE,,,,,,,,HD,,
LPG,U-Haul,4360 Covington Hwy,0.25 mile outside of I-285,Decatur,GA,30035,,404-284-0918,E,,Public - Call ahead,"7am-7pm M-Th and Sat, 7am-8pm F, 9am-5pm Sun",A Cash D M V,,,,,,,,,,200-8,33.749436,-84.22583,5/12/2025,19507,2026-02-02 23:16:24 UTC,P,,,11/1/2000,,,FALSE,,,US,,,,Public - Appeler à l'avance,,public,CALL,,RENTAL_CAR_RETURN,,,,,,,,,ACME QUICK_CONNECT,,,,,,,,FALSE,,,,,,,,HD,,
LPG,U-Haul,5285 S Cobb Dr SE,At I-285,Smyrna,GA,30080,,404-792-2772,E,,Public - Call ahead,"7am-7pm M-Th and Sat, 7am-8pm F, 9am-5pm Sun",A Cash D M V,,,,,,,,,,GPS,33.82487238,-84.48800949,5/12/2025,19511,2026-02-02 23:16:24 UTC,P,,,11/1/2000,,,FALSE,,,US,,,,Public - Appeler à l'avance,,public,CALL,,RENTAL_CAR_RETURN,,,,,,,,,ACME QUICK_CONNECT,,,,,,,,FALSE,,,,,,,,HD,,
LPG,U-Haul,4940 Memorial Dr,1 mile outside of I-285,Stone Mountain,GA,30083,,404-296-9737,E,,Public - Call ahead,"7am-7pm M-Th and Sat, 7am-8pm F, 9am-5pm Sun",A Cash D M V,,,,,,,,,,200-9,33.79028,-84.230988,5/12/2025,19513,2026-02-02 23:16:24 UTC,P,,,11/1/2000,,,FALSE,,,US,,,,Public - Appeler à l'avance,,public,CALL,,RENTAL_CAR_RETURN,,,,,,,,,ACME QUICK_CONNECT,,,,,,,,FALSE,,,,,,,,HD,,
LPG,U-Haul,5365 Jimmy Carter Blvd NW,East of I-85,Norcross,GA,30093,,770-447-5017,E,,Public - Call ahead,"7am-7pm M-Th and Sat, 7am-8pm F, 9am-5pm Sun",A Cash D M V,,,,,,,,,,200-8,33.904974,-84.204327,5/12/2025,19514,2026-02-02 23:16:24 UTC,P,,,11/1/2000,,,FALSE,,,US,,,,Public - Appeler à l'avance,,public,CALL,,RENTAL_CAR_RETURN,,,,,,,,,ACME QUICK_CONNECT,,,,,,,,FALSE,,,,,,,,HD,,
LPG,U-Haul,1290 Pleasant Hill Rd,Between Club and Cruse,Lawrenceville,GA,30044,,770-381-9793,E,,Public - Call ahead,"7am-7pm M-Th and Sat, 7am-8pm F, 9am-5pm Sun",A Cash D M V,,,,,,,,,,200-9,33.936021,-84.12031,5/12/2025,19517,2026-02-02 23:16:24 UTC,P,,,11/1/2000,,,FALSE,,,US,,,,Public - Appeler à l'avance,,public,CALL,,RENTAL_CAR_RETURN,,,,,,,,,ACME QUICK_CONNECT,,,,,,,,FALSE,,,,,,,,HD,,
LPG,U-Haul,7242 Highway 85,North of Highway 138,Riverdale,GA,30274,,770-997-5923,E,,Public - Call ahead,"7am-7pm M-Th and Sat, 7am-8pm F, 9am-5pm Sun",A Cash D M V,,,,,,,,,,200-9,33.557101,-84.413272,5/12/2025,19518,2026-02-02 23:16:24 UTC,P,,,11/1/2000,,,FALSE,,,US,,,,Public - Appeler à l'avance,,public,CALL,,RENTAL_CAR_RETURN,,,,,,,,,ACME QUICK_CONNECT,,,,,,,,FALSE,,,,,,,,HD,,
LPG,U-Haul,2161 Hewatt Rd,West of Snellville on Highway 78,Snellville,GA,30039,,770-979-5237,E,,Public - Call ahead,"7am-7pm M-Th and Sat, 7am-8pm F, 9am-5pm Sun",A Cash D M V,,,,,,,,,,GPS,33.842699,-84.061184,5/12/2025,19519,2026-02-02 23:16:24 UTC,P,,,11/1/2000,,,FALSE,,,US,,,,Public - Appeler à l'avance,,public,CALL,,RENTAL_CAR_RETURN,,,,,,,,,ACME QUICK_CONNECT,,,,,,,,FALSE,,,,,,,,HD,,
LPG,U-Haul,3947 NE Peachtree Rd,At Druid Hills,Atlanta,GA,30319,,404-231-2126,E,,Public - Call ahead,"7am-7pm M-Th and Sat, 7am-8pm F, 9am-5pm Sun",A Cash D M V,,,,,,,,,,GPS,33.857618,-84.341682,5/12/2025,19520,2026-02-02 23:16:24 UTC,P,,,11/1/2000,,,FALSE,,,US,,,,Public - Appeler à l'avance,,public,CALL,,RENTAL_CAR_RETURN,,,,,,,,,ACME QUICK_CONNECT,,,,,,,,FALSE,,,,,,,,HD,,
LPG,U-Haul,4225 Fulton Industrial,At I-20,Atlanta,GA,30336,,404-696-8817,E,,Public - Call ahead,"7am-7pm M-Th and Sat, 7am-8pm F, 9am-5pm Sun",A Cash D M V,,,,,,,,,,200-9,33.76567945,-84.53068327,5/12/2025,19521,2026-02-02 23:16:24 UTC,P,,,11/1/2000,,,FALSE,,,US,,,,Public - Appeler à l'avance,,public,CALL,,RENTAL_CAR_RETURN,,,,,,,,,ACME QUICK_CONNECT,,,,,,,,FALSE,,,,,,,,HD,,
LPG,U-Haul,2951 NE Expy,At Shallowford Rd,Chamblee,GA,30341,,770-458-8353,E,,Public - Call ahead,"7am-7pm M-Th and Sat, 7am-8pm F, 9am-5pm Sun",A Cash D M V,,,,,,,,,,200-9,33.864748,-84.286938,5/12/2025,19522,2026-02-02 23:16:24 UTC,P,,,11/1/2000,,,FALSE,,,US,,,,Public - Appeler à l'avance,,public,CALL,,RENTAL_CAR_RETURN,,,,,,,,,ACME QUICK_CONNECT,,,,,,,,FALSE,,,,,,,,HD,,
LPG,U-Haul,3363 Wrightsboro Rd,East of Bobby Jones,Augusta,GA,30909,,706-738-6463,E,,Public - Call ahead,"7am-7pm M-Th and Sat, 7am-8pm F, 9am-5pm Sun",A Cash D M V,,,,,,,,,,200-9,33.469164,-82.074659,5/12/2025,19530,2026-02-02 23:16:24 UTC,P,,,11/1/2000,,,FALSE,,,US,,,,Public - Appeler à l'avance,,public,CALL,,RENTAL_CAR_RETURN,,,,,,,,,ACME QUICK_CONNECT,,,,,,,,FALSE,,,,,,,,HD,,
CNG,Metropolitan Atlanta Rapid Transit Authority,277 Laredo Dr,,Scottdale,GA,30030,,,E,,Private - Government only,,,,Q,3600,,,,,,,GPS,33.7829229,-84.2706594,2/12/2024,25597,2025-11-14 21:49:07 UTC,LG,,,7/15/2004,,HD,,,,US,,,,Privé - Réservé au gouvernement,,private,GOVERNMENT,,FLEET_GARAGE,,,1100,,,,,,,,,Q,3600,HD,,,,,,,,,,,HD,,
LPG,USA Gas Inc,815 N Tibbs Rd,I-75 exit 336  turn left on Tibbs Rd across from Wendy's,Dalton,GA,30720,,706-279-2900,E,,Public,8am-5pm M-F,Cash M V,,,,,,,,,,GPS,34.78582557666189,-85.00308179,6/13/2024,25983,2025-09-18 16:01:33 UTC,P,,,11/20/2004,,,FALSE,,,US,,,,Public,,public,,,FUEL_RESELLER,,,,,,,,,ACME,,,,,,,,FALSE,,,,,,,,MD,,
LPG,Blossman Gas Inc,3081 US-27 BUS,Hwy 27 Bypass Buchanan Ga,Buchanan,GA,30113,,770-646-5400,E,,Public - Call ahead,8am-5pm M-F (full service); 24 hour access with Alliance AutoGas card (self-service),A ALLIANCE Cash D M V,,,,,,,,,,GPS,33.790729,-85.18092,10/11/2024,26674,2025-06-11 19:53:17 UTC,P,,,3/22/2005,,,FALSE,,,US,,,,Public - Appeler à l'avance,,public,CALL,,FUEL_RESELLER,,,,,,,,,ACME QUICK_CONNECT,,,,,,,,FALSE,,,,,,,,HD,,
LPG,Blossman Gas Inc,66 Rickman St,,Clayton,GA,30525,,706-782-8305,E,,Public - Call ahead,8am-5pm M-F (full service); 24 hour access with Alliance AutoGas card (self-service),A ALLIANCE Cash Checks D M V,,,,,,,,,,GPS,34.87776316132707,-83.39517063,10/11/2024,26675,2025-06-11 19:53:17 UTC,P,,,3/22/2005,,,FALSE,,,US,,,,Public - Appeler à l'avance,,public,CALL,,FUEL_RESELLER,,,,,,,,,ACME QUICK_CONNECT,,,,,,,,FALSE,,,,,,,,HD,,
LPG,Blossman Gas Inc,2739 Highway 129 S,,Cleveland,GA,30528,,706-865-1797,E,,Public - Call ahead,8am-5pm M-F (full service); 24 hour access with Alliance AutoGas card (self-service),A ALLIANCE Cash D M V,,,,,,,,,,GPS,34.558527,-83.761408,10/11/2024,26676,2025-06-11 19:53:17 UTC,P,,,3/22/2005,,,FALSE,,,US,,,,Public - Appeler à l'avance,,public,CALL,,FUEL_RESELLER,,,,,,,,,ACME QUICK_CONNECT,,,,,,,,FALSE,,,,,,,,HD,,
LPG,Blossman Gas Inc,8905 Highway 5,,Douglasville,GA,30134,,770-949-9815,E,,Public - Call ahead,8am-5pm M-F (full service); 24 hour access with Alliance AutoGas card (self-service),A ALLIANCE Cash Checks D M V,,,,,,,,,,200-9,33.739385,-84.77525,10/11/2024,26677,2025-06-11 19:53:17 UTC,P,,,3/22/2005,,,FALSE,,,US,,,,Public - Appeler à l'avance,,public,CALL,,FUEL_RESELLER,,,,,,,,,ACME QUICK_CONNECT,,,,,,,,FALSE,,,,,,,,HD,,
LPG,Blossman Gas Inc,1725 N Main St,,Lafayette,GA,30728,,404-273-2927,E,,Public - Call ahead,8am-5pm M-F (full service); 24 hour access with Alliance AutoGas card (self-service),A ALLIANCE Cash Checks D M V,,,,,,,,,,200-9,34.734529,-85.276451,10/11/2024,26678,2025-06-11 19:53:17 UTC,P,,,3/22/2005,,,FALSE,,,US,,,,Public - Appeler à l'avance,,public,CALL,,FUEL_RESELLER,,,,,,,,,ACME QUICK_CONNECT,,,,,,,,FALSE,,,,,,,,HD,,
LPG,Blossman Gas Inc,3918 Rockmart Hwy,Highway 278 between Rockmart and Cedartown,Cedartown,GA,30125,,770-684-7382,E,,Public - Call ahead,8am-5pm M-F (full service); 24 hour access with Alliance AutoGas card (self-service),A ALLIANCE Cash Checks D M V,,,,,,,,,,GPS,34.002203,-85.146333,10/11/2024,26679,2025-06-11 19:53:17 UTC,P,,,3/22/2005,,,FALSE,,,US,,,,Public - Appeler à l'avance,,public,CALL,,FUEL_RESELLER,,,,,,,,,ACME QUICK_CONNECT,,,,,,,,FALSE,,,,,,,,HD,,
E85,Fort Stewart,Tank Tr,,Fort Stewart,GA,31314,,,E,,Private - Government only,"Also accepts VIL Key, Military CAT",Proprietor Wright_Exp,,,,,,,,,,GPS,31.881908,-81.636969,11/13/2025,30238,2026-02-02 23:16:24 UTC,FG,6,Department of Army,9/15/2009,,,,FALSE,,US,,,,Privé - Réservé au gouvernement,,private,GOVERNMENT,DA,MIL_BASE,,,,,,,,,,,,,,,,,,,,,,,,,LD,,
BD,Robins Air Force Base,640 2nd St,,Macon,GA,31098,,,E,,Private - Government only,Also accepts paying arrangement made with station manager,Wright_Exp,B20,,,,,,,,,GPS,32.619389,-83.602222,11/13/2025,30305,2026-02-02 23:16:24 UTC,FG,5,Department of Air Force,9/15/2006,,,,,,US,,,,Privé - Réservé au gouvernement,,private,GOVERNMENT,DAF,MIL_BASE,,,,,,,,,,,,,,,,,,,,,,,,,LD,,
E85,Speedy #4,101 Marshallville Rd,I-75 exit 135,Perry,GA,31069,,478-987-8061,E,,Public,"6am-11pm M-Th, 6am-12am F-Sat, 6am-10pm Sun",A Cash D Debit M V Voyager Wright_Exp,,,,,,,,,,200-9,32.447148,-83.75019,10/13/2025,30844,2026-02-02 23:16:24 UTC,P,,,11/15/2006,,,,FALSE,,US,,,,Public,,public,,,CONVENIENCE_STORE,,,,,,,,,,,,,,,,,FALSE,,,,,,,,MD,,
E85,Speedy #2,2601 Moody Rd,At Feagan Mill Rd,Warner Robins,GA,31088,,478-328-3755,E,,Public - Credit card after hours,6am-10pm daily,A Cash D M V Voyager Wright_Exp,,,,,,,,,,GPS,32.574874,-83.624089,11/13/2025,31200,2026-02-02 23:16:24 UTC,P,,,2/23/2007,,,,FALSE,,US,,,,Public - Carte de crédit après les heures d'ouverture,,public,CREDIT_CARD_AFTER_HOURS,,CONVENIENCE_STORE,,,,,,,,,,,,,,,,,FALSE,,,,,,,,MD,,
E85,Chevron,2755 Clairmont Rd,,Atlanta,GA,30329,,404-321-2712,E,,Public,24 hours daily,A Cash D M V Voyager Wright_Exp,,,,,,,,,,GPS,33.83745508306181,-84.31129161,10/11/2024,33003,2025-10-29 14:16:07 UTC,P,,,8/31/2015,,,,FALSE,,US,,,,Public,,public,,,GAS_STATION,,,,,,,,,,,,,,,,,FALSE,,,,,,,,MD,,
E85,BP - Safa Express,725 Grayson Hwy,,Lawrenceville,GA,30046,,770-277-1119,E,,Public,24 hours daily,A Cash D Debit M V Voyager Wright_Exp,,,,,,,,,,GPS,33.956197,-83.988108,11/13/2025,33010,2026-02-02 23:16:24 UTC,P,,,4/11/2008,,,,FALSE,,US,,,,Public,,public,,,CONVENIENCE_STORE,,,,,,,,,,,,,,,,,FALSE,,,,,,,,MD,,
E85,Texaco,1525 Mountain Industrial,,Stone Mountain,GA,30083,,770-493-9107,E,,Public,6am-12am daily,A Cash D M V Voyager Wright_Exp,,,,,,,,,,200-9,33.825956,-84.195469,8/12/2025,33012,2026-02-02 23:16:24 UTC,P,,,6/1/2008,,,,FALSE,,US,,,,Public,,public,,,CONVENIENCE_STORE,,,,,,,,,,,,,,,,,FALSE,,,,,,,,MD,,
CNG,Clean Energy - College Park,4555 Edison Dr,Near Hartsfield-Jackson International Airport,College Park,GA,30337,,866-809-4869,E,,Public - Credit card at all times,24 hours daily; call 866-809-4869 for Clean Energy card,A CleanEnergy Comdata D FleetOne FuelMan M Proprietor V Voyager Wright_Exp,,Q,3600,,,,,,,200-9,33.632374,-84.465773,9/12/2025,33716,2026-02-02 23:16:24 UTC,LG,,,11/12/2008,,HD,,,,US,,,,Public - Carte de crédit en tout temps,,public,CREDIT_CARD_ALWAYS,,STANDALONE_STATION,2,NONE,,,,,,,,,,Q,3600,HD,,,FALSE,,,,,,TRUE,,HD,,
E85,Exxon - GasXpress,202 Candler Rd,At Memorial Drive,Atlanta,GA,30317,,404-687-9455,E,,Public,24 hours daily,A Cash D FuelMan M V Voyager Wright_Exp,,,,,,,,,,200-9,33.747469,-84.291757,8/12/2025,35236,2026-02-02 23:16:24 UTC,P,,,2/14/2020,,,,FALSE,,US,,,,Public,,public,,,CONVENIENCE_STORE,,,,,,,,,,,,,,,,,FALSE,,,,,,,,MD,,
BD,Marine Corps Logistic Base - Albany,814 Radford Blvd,,Albany,GA,31704,,,E,,Private - Government only,,,B20,,,,,,,,,GPS,31.551225,-84.066879,12/12/2025,35324,2026-02-02 23:16:24 UTC,FG,26,United States Marine Corps,7/1/2009,,,,,,US,,,,Privé - Réservé au gouvernement,,private,GOVERNMENT,USMC,MIL_BASE,,,,,,,,,,,,,,,,,,,,,,,,,LD,,
CNG,DeKalb County - Seminole Road Landfill,4295 Clevemont Rd,,Ellenwood,GA,30294,,404-297-4434,E,,Public - Credit card at all times,6am-10pm M-F,D M V Voyager Wright_Exp,,Q,3600,,,,,,,200-8,33.652844,-84.253832,10/11/2024,36304,2025-11-14 20:12:42 UTC,LG,,,9/1/2012,,HD,,,,US,,,,Public - Carte de crédit en tout temps,,public,CREDIT_CARD_ALWAYS,,MUNI_GOV,2,LANDFILL,,,,,,,,,,Q,3600,HD,,,FALSE,,,,,,TRUE,,HD,,
CNG,Snapping Shoals EMC,14750 Brown Bridge Rd,,Covington,GA,30016,,,E,,Private,,,,Q,3600,,,,,,,200-9,33.553764,-84.010826,11/13/2025,36578,2026-02-02 23:16:24 UTC,T,,,1/1/1998,,MD,,,,US,,,,Privé,,private,,,UTILITY,1,,,,,,,,,,,Q,3600,MD,,,,,,,,,FALSE,,MD,,
E85,BP,4615 Hugh Howell Rd,,Tucker,GA,30084,,770-939-6069,E,,Public,24 hours daily,A Cash Checks D M V Voyager Wright_Exp,,,,,,,,,,200-9,33.848708,-84.200314,1/13/2025,36904,2025-12-15 15:11:34 UTC,P,,,8/15/2016,,,,FALSE,,US,,,,Public,,public,,,CONVENIENCE_STORE,,,,,,,,,,,,,,,,,FALSE,,,,,,,,MD,,
CNG,CobbLinc,800 S Marietta Pkwy SE,,Atlanta,GA,30060,,,E,,Private - Government only,,,,Q,3000,,,,,,,200-9,33.94136,-84.529676,1/13/2025,37116,2025-11-06 18:09:36 UTC,LG,,,1/1/2002,,MD,,,,US,,,,Privé - Réservé au gouvernement,,private,GOVERNMENT,,FLEET_GARAGE,3,,,,,,,,,,,Q,3000,MD,,,,,,,,,FALSE,,MD,,
E85,Federal Law Enforcement Training Center Glynco,1131 Chapel Crossing Rd,,Glynco,GA,31524,,,E,,Private - Government only,Call ahead,,,,,,,,,,,GPS,31.228369,-81.462842,12/12/2025,37131,2026-02-02 23:16:24 UTC,FG,10,Department of Homeland Security,12/15/2008,,,,FALSE,,US,,,,Privé - Réservé au gouvernement,,private,GOVERNMENT,DHS,FED_GOV,,,,,,,,,,,,,,,,,,,,,,,,,LD,,
E85,Chevron,295 Mount Vernon Hwy NE,,Sandy Springs,GA,30328,,678-732-9540,E,,Public,6am-11pm daily,A Cash D M V Voyager Wright_Exp,,,,,,,,,,GPS,33.92431168486179,-84.37784329,11/13/2025,37134,2026-02-02 23:16:24 UTC,P,,,12/17/2010,,,,FALSE,,US,,,,Public,,public,,,GAS_STATION,,,,,,,,,,,,,,,,,FALSE,,,,,,,,MD,,
ELEC,1075 Peachtree,1075 Peachtree St NE,On Level P12,Atlanta,GA,30309,,,E,,Public,24 hours daily,,,,,,6,,,ENVIROSPARK,https://envirosparkenergy.com,GPS,33.78412,-84.3828,11/13/2025,37265,2026-02-02 23:16:24 UTC,P,,,12/15/2010,,,,,J1772,US,,,,Public,,public,,,OFFICE_BLDG,,,,,,,$0.40 per kWh,,,,,,,,,,FALSE,,,,,,,,LD,TRUE,
E85,Gas N Go,202 B Highway 19 S,Corner of US Hwy 280 W and Hwy 19 S,Americus,GA,31719,,229-931-8940,E,,Public,"5:30am-12am Sun-Th, 5:30am-12:30am F-Sat",A Cash Checks D Debit M V Voyager Wright_Exp,,,,,,,,,,200-9,32.064009,-84.253284,8/12/2025,37353,2026-02-02 23:16:24 UTC,P,,,12/15/2010,,,,FALSE,,US,,,,Public,,public,,,CONVENIENCE_STORE,,,,,,,,,,,,,,,,,FALSE,,,,,,,,MD,,
LPG,Alliance AutoGas - Modern Gas Co,1335 US Highway 82 W,Located two miles west of the Albany Mall on the right,Leesburg,GA,31763,,229-435-6116  888-446-4551,E,,Public,"8am-6pm M-F, 9am-4pm Sat (full service); 24 hours daily with Alliance AutoGas card (self-service)",A ALLIANCE Cash Checks D M V,,,,,,,,,,200-9,31.633203,-84.240701,1/13/2025,38474,2025-06-11 19:51:38 UTC,P,,,10/13/2013,,,TRUE,,,US,,,,Public,,public,,,FUEL_RESELLER,,,,,,,,,ACME QUICK_CONNECT,,,,,,,,FALSE,,,,,,,,HD,,
ELEC,Nalley Nissan - Atlanta,2551 The Nalley Way,,Atlanta,GA,30360,,855-416-9828,E,,Public,Dealership business hours,,,,,,2,2,,Non-Networked,,GPS,33.907711,-84.282664,1/13/2026,39985,2026-02-02 23:16:24 UTC,P,,,6/5/2012,,,,,CHADEMO J1772 J1772COMBO,US,,,,Public,,public,,,CAR_DEALER,,,,,,,,,,,,,,,,,TRUE,,,,,,,,LD,FALSE,
ELEC,AutoNation Nissan - Thornton Road,811 Thornton Rd,,Lithia Springs,GA,30122,,770-674-6080,E,,Public,Dealership business hours,,,,,,,1,,IN_CHARGE,https://inchargeus.com,GPS,33.784102,-84.612838,1/13/2026,39989,2026-02-02 23:16:24 UTC,P,,,6/5/2012,,,,,CHADEMO J1772COMBO,US,,,,Public,,public,,,CAR_DEALER,,,,,,,Free,,,,,,,,,,TRUE,,,,,,,,LD,FALSE,
ELEC,Regal Nissan,1090 Holcomb Bridge Rd,,Roswell,GA,30076,,770-998-8686,E,,Public - Call ahead,Dealership business hours,,,,,,2,1,,Non-Networked,,GPS,34.021794,-84.327521,1/13/2026,39992,2026-02-02 23:16:24 UTC,P,,,3/15/2011,,,,,CHADEMO J1772 J1772COMBO,US,,,,Public - Appeler à l'avance,,public,CALL,,CAR_DEALER,,,,,,,Free,,,,,,,,,,FALSE,,,,,,,,LD,FALSE,
ELEC,Jim Ellis Chevrolet,5900 Peachtree Industrial Blvd,"South of I-285 on west side of Peachtree Industrial Blvd, located near the sales department",Atlanta,GA,30341,,,E,,Public - Call ahead,9am-8pm M-Sat; for Volt use only,,,,,,6,1,,Non-Networked,,GPS,33.90999,-84.2914,1/9/2024,40790,2024-01-31 22:07:01 UTC,P,,,7/27/2011,,,,,J1772 J1772COMBO,US,,,,Public - Appeler à l'avance,,public,CALL,,CAR_DEALER,,,,,,,Free,,,,,,,,,SOLAR,TRUE,,,,,,,,LD,FALSE,
ELEC,Net Zero USA,7565 Industrial Ct,McFarland & Atlanta Highway,Alpharetta,GA,30004,,888-326-2220,E,,Public - Call ahead,8:30am-5:30pm M-F,,,,,,1,,,Non-Networked,,200-9,34.138312,-84.251109,12/12/2025,42032,2026-02-02 23:16:24 UTC,P,,,12/5/2011,,,,,J1772,US,,,,Public - Appeler à l'avance,,public,CALL,,PARKING_LOT,,,,,,,Free,,,,,,,,,SOLAR,FALSE,,,,,,,,LD,FALSE,
LNG,Clean Energy - Atlanta East,3229 Mooreland Ave,,Conley,GA,30288,,866-809-4869,T,10/22/2025,TEMPORARILY UNAVAILABLE (Public - Credit card at all times),24 hours daily; call 866-809-4869 for Clean Energy card,A CleanEnergy Comdata D EFS FleetOne FuelMan M TCH Tchek V Voyager Wright_Exp,,,,,,,,,,200-8,33.664044,-84.33865,9/12/2025,43704,2026-02-02 23:16:24 UTC,P,,,6/15/2016,,HD,,,,US,,,,TEMPORAIREMENT SUSPENDU (Public - Carte de crédit en tout temps),,public,CREDIT_CARD_ALWAYS,,STANDALONE_STATION,,,,,NONE,,,,,,,,,,HD,,FALSE,,,,,,,TRUE,HD,,
CNG,US Energy - American Fueling Systems,4420 Buford Hwy NE,1 mile inside I-285,Chamblee,GA,30341,,770-399-7800,E,,Public - Credit card at all times,24 hours daily; Also accepts Diners Club and JCB,A CFN Comdata D EFS FleetOne FuelMan GasCard M TCH Tchek V Wright_Exp,,Q,3600,,,,,,,200-9,33.873935,-84.297481,11/13/2025,43705,2026-02-02 23:16:24 UTC,P,,,9/20/2012,,HD,,,,US,,,,Public - Carte de crédit en tout temps,,public,CREDIT_CARD_ALWAYS,,STANDALONE_STATION,4,NONE,600,60000,,,,,,,,Q,3600,HD,,,FALSE,,,,,,TRUE,,HD,,
LNG,Clean Energy - Dalton Pilot #421,142 Carbondale Rd,,Dalton,GA,30721,,866-809-4869,P,10/22/2025,PLANNED - not yet accessible (Public - Credit card at all times),24 hours daily; call 866-809-4869 for Clean Energy card; Also accepts PFGift Card,A CleanEnergy Comdata D EFS FuelMan M Speedway TCH Tchek V Voyager Wright_Exp,,,,,,,,,,200-9,34.655767,-84.980332,9/12/2025,43706,2026-02-02 23:16:24 UTC,P,,,,,HD,,,,US,,,,PRÉVU - pas encore accessible (Public - Carte de crédit en tout temps),,public,CREDIT_CARD_ALWAYS,,TRAVEL_CENTER,,,,,,,,,,,,,,,HD,,FALSE,,,,,,,,HD,,
CNG,City of Statesboro,5 Braswell St,10 miles off I-16.,Statesboro,GA,30458,,,E,,Private,,,,B,3600,,,,,,,200-8,32.4565,-81.769979,1/13/2025,43708,2025-11-06 18:09:36 UTC,P,,,12/31/2016,,HD,,,,US,,,,Privé,,private,,,MUNI_GOV,1,,,,,,,,,,,B,3600,HD,,,,,,,,,,,HD,,
LNG,Clean Energy - Tifton Pilot #192,4457 Old Union Rd,,Tifton,GA,31794,,866-809-4869,P,10/22/2025,PLANNED - not yet accessible (Public - Credit card at all times),24 hours daily; call 866-809-4869 for Clean Energy card; Also accepts PFGiftCard,A CleanEnergy Comdata D EFS FleetOne FuelMan M Speedway TCH Tchek V Voyager Wright_Exp,,,,,,,,,,200-8,31.429118,-83.517133,9/12/2025,43709,2026-02-02 23:16:24 UTC,P,,,,,HD,,,,US,,,,PRÉVU - pas encore accessible (Public - Carte de crédit en tout temps),,public,CREDIT_CARD_ALWAYS,,TRAVEL_CENTER,,,,,,,,,,,,,,,HD,,FALSE,,,,,,,,HD,,
ELEC,Carriage Nissan,2400 Browns Bridge Rd,,Gainesville,GA,30504,,770-532-6335,E,,Public - Call ahead,Dealership business hours,,,,,,1,1,,Non-Networked,,200-8,34.275207,-83.85946,2/12/2024,43839,2025-02-12 00:16:32 UTC,P,,,3/1/2011,,,,,CHADEMO J1772,US,,,,Public - Appeler à l'avance,,public,CALL,,CAR_DEALER,,,,,,,Free,,,,,,,,,,FALSE,,,,,,,,LD,FALSE,
ELEC,PMC Enterprises,240 Industrial Park Dr,Exit 185 off Interstate 75. Less than 3/4 mile off interstate,Forsyth,GA,31029,,,E,,Private,During business hours,,,,,,1,,,Non-Networked,,200-8,33.020179,-83.912616,8/15/2024,46291,2025-02-12 00:16:32 UTC,P,,,1/5/2021,,,,,J1772,US,,,,Privé,,private,,,OFFICE_BLDG,,,,,,,,,,,,,,,,,,,,,,,,,LD,FALSE,
ELEC,Vaden Nissan,10421 Abercorn St,,Savannah,GA,31419,,912-920-5480,E,,Public - Call ahead,Dealership business hours,,,,,,3,1,,Non-Networked,,200-8,31.98687,-81.13263,2/12/2024,46483,2025-02-12 00:16:32 UTC,P,,,1/31/2012,,,,,CHADEMO J1772,US,,,,Public - Appeler à l'avance,,public,CALL,,CAR_DEALER,,,,,,,Free,,,,,,,,,,FALSE,,,,,,,,LD,FALSE,
ELEC,Vaden Nissan,10421 Abercorn St,,Savannah,GA,31419,,912-920-5480,E,,Private,,,,,,,1,,,Non-Networked,,200-8,31.98687,-81.13263,2/12/2024,46484,2025-02-12 00:16:32 UTC,P,,,1/31/2012,,,,,J1772,US,,,,Privé,,private,,,CAR_DEALER,,,,,,,Free,,,,,,,,,,,,,,,,,,LD,FALSE,
ELEC,Flowers Nissan,1630 E Jackson St,,Thomasville,GA,31792,,229-226-1106,E,,Public,Dealership business hours,,,,,,1,,,Non-Networked,,GPS,30.857187,-83.950078,1/13/2026,46488,2026-02-02 23:16:24 UTC,P,,,6/5/2012,,,,,J1772,US,,,,Public,,public,,,CAR_DEALER,,,,,,,,,,,,,,,,,TRUE,,,,,,,,LD,FALSE,
ELEC,Flowers Nissan,1630 E Jackson St,,Thomasville,GA,31792,,229-226-1106,E,,Private,,,,,,,1,,,Non-Networked,,GPS,30.857187,-83.950078,1/13/2026,46489,2026-02-02 23:16:24 UTC,P,,,1/31/2012,,,,,J1772,US,,,,Privé,,private,,,CAR_DEALER,,,,,,,Free,,,,,,,,,,,,,,,,,,LD,FALSE,
ELEC,Tenneson Nissan,535 Old Omega Rd,,Tifton,GA,31794,,229-382-7777,E,,Public - Call ahead,Dealership business hours,,,,,,1,,,Non-Networked,,GPS,31.441655,-83.524877,1/13/2026,46490,2026-02-02 23:16:24 UTC,P,,,1/31/2012,,,,,J1772,US,,,,Public - Appeler à l'avance,,public,CALL,,CAR_DEALER,,,,,,,Free,,,,,,,,,,FALSE,,,,,,,,LD,FALSE,
ELEC,Valdosta Nissan,3715 Inner Perimeter Rd,,Valdosta,GA,31602,,229-242-7325,E,,Private,,,,,,,1,,,Non-Networked,,GPS,30.883335,-83.269585,1/13/2026,46493,2026-02-02 23:16:24 UTC,P,,,1/31/2012,,,,,J1772,US,,,,Privé,,private,,,CAR_DEALER,,,,,,,Free,,,,,,,,,,,,,,,,,,,FALSE,
ELEC,Woody Folsom Nissan,1609 E 1st St,,Vidalia,GA,30474,,912-537-9079,E,,Public,Dealership business hours,,,,,,1,,,Non-Networked,,GPS,32.210575,-82.391724,1/13/2026,46494,2026-02-02 23:16:24 UTC,P,,,9/10/2013,,,,,J1772,US,,,,Public,,public,,,CAR_DEALER,,,,,,,,,,,,,,,,,TRUE,,,,,,,,LD,FALSE,
ELEC,Five Star Nissan - Albany,1100 E Oglethorpe Blvd,,Albany,GA,31705,,229-436-8807,E,,Public - Call ahead,Dealership business hours,,,,,,1,,,Non-Networked,,200-9,31.57122,-84.125568,2/12/2024,46640,2025-02-12 00:16:32 UTC,P,,,1/31/2012,,,,,J1772,US,,,,Public - Appeler à l'avance,,public,CALL,,CAR_DEALER,,,,,,,Free,,,,,,,,,,FALSE,,,,,,,,,FALSE,
ELEC,Five Star Nissan - Albany,1100 E Oglethorpe Blvd,,Albany,GA,31705,,229-436-8807,E,,Private,,,,,,,1,,,Non-Networked,,200-9,31.57122,-84.125568,2/12/2024,46641,2025-02-12 00:16:32 UTC,P,,,1/31/2012,,,,,J1772,US,,,,Privé,,private,,,CAR_DEALER,,,,,,,Free,,,,,,,,,,,,,,,,,,,FALSE,
ELEC,Hilton Garden Inn - Marietta,3045 Windy Hill Rd,,Atlanta,GA,30339,,770-953-8850,E,,Public,24 hours daily; for guest use only,,,,,,4,,,Non-Networked,,GPS,33.9064807,-84.4639319,12/10/2024,46642,2025-02-12 00:16:32 UTC,P,,,2/15/2012,,,,,J1772,US,,,,Public,,public,,,HOTEL,,,,,,,Free,,,,,,,,,,TRUE,,,,,,,,,FALSE,
ELEC,Nissan of Augusta,3300 Washington Rd,,Augusta,GA,30907,,706-854-1000,E,,Public - Call ahead,Dealership business hours,,,,,,1,,,Non-Networked,,200-9,33.515068,-82.067573,2/12/2024,46643,2025-02-12 00:16:32 UTC,P,,,1/31/2012,,,,,J1772,US,,,,Public - Appeler à l'avance,,public,CALL,,CAR_DEALER,,,,,,,Free,,,,,,,,,,FALSE,,,,,,,,LD,FALSE,
ELEC,Nissan of Augusta,3300 Washington Rd,,Augusta,GA,30907,,706-854-1000,E,,Private,,,,,,,1,,,Non-Networked,,200-9,33.515068,-82.067573,2/12/2024,46644,2025-02-12 00:16:32 UTC,P,,,1/31/2012,,,,,J1772,US,,,,Privé,,private,,,CAR_DEALER,,,,,,,Free,,,,,,,,,,,,,,,,,,,FALSE,
ELEC,Nissan of Athens,4735 Atlanta Hwy,,Athens,GA,30606,,706-549-6600,E,,Public - Call ahead,Dealership business hours,,,,,,1,1,,Non-Networked,,200-8,33.940287,-83.49648,2/12/2024,46645,2025-02-12 00:16:32 UTC,P,,,1/31/2012,,,,,CHADEMO J1772,US,,,,Public - Appeler à l'avance,,public,CALL,,CAR_DEALER,,,,,,,Free,,,,,,,,,,FALSE,,,,,,,,LD,FALSE,
ELEC,Nissan of Athens,4735 Atlanta Hwy,,Athens,GA,30606,,706-549-6600,E,,Private,,,,,,,1,,,Non-Networked,,200-8,33.940287,-83.49648,2/12/2024,46646,2025-02-12 00:16:32 UTC,P,,,1/31/2012,,,,,J1772,US,,,,Privé,,private,,,CAR_DEALER,,,,,,,,,,,,,,,,,,,,,,,,,LD,FALSE,
ELEC,Scott Evans Nissan,725 Bankhead Hwy,,Carrollton,GA,30117,,770-832-8222,E,,Private,,,,,,,1,,,Non-Networked,,GPS,33.587927,-85.053421,1/13/2026,46648,2026-02-02 23:16:24 UTC,P,,,1/31/2012,,,,,J1772,US,,,,Privé,,private,,,CAR_DEALER,,,,,,,Free,,,,,,,,,,,,,,,,,,LD,FALSE,
ELEC,Nissan Headquarters - Columbus,1725 Whittlesey Rd,,Columbus,GA,31904,,,E,,Public - Call ahead,Dealership business hours,,,,,,1,1,,Non-Networked,,GPS,32.539843,-84.965676,2/12/2024,46649,2025-02-12 00:16:32 UTC,P,,,1/31/2012,,,,,CHADEMO J1772,US,,,,Public - Appeler à l'avance,,public,CALL,,CAR_DEALER,,,,,,,Free,,,,,,,,,,FALSE,,,,,,,,,FALSE,
ELEC,Nissan Headquarters - Columbus,1725 Whittlesey Rd,,Columbus,GA,31904,,,E,,Private,,,,,,,1,,,Non-Networked,,GPS,32.539843,-84.965676,2/12/2024,46650,2025-02-12 00:16:32 UTC,P,,,1/31/2012,,,,,J1772,US,,,,Privé,,private,,,CAR_DEALER,,,,,,,Free,,,,,,,,,,,,,,,,,,,FALSE,
ELEC,Conyers Nissan,1420 Iris Dr,,Conyers,GA,30094,,,E,,Public,Dealership business hours,,,,,,2,1,,Non-Networked,,GPS,33.66566496,-84.03463311,1/13/2026,46651,2026-02-02 23:16:24 UTC,P,,,9/10/2013,,,,,CHADEMO J1772 J1772COMBO,US,,,,Public,,public,,,CAR_DEALER,,,,,,,Free,,,,,,,,,,TRUE,,,,,,,,LD,FALSE,
ELEC,Conyers Nissan,1420 Iris Dr,,Conyers,GA,30094,,,E,,Private,,,,,,,1,1,,Non-Networked,,GPS,33.66566496,-84.03463311,1/13/2026,46652,2026-02-02 23:16:24 UTC,P,,,1/31/2012,,,,,J1772 J1772COMBO,US,,,,Privé,,private,,,CAR_DEALER,,,,,,,Free,,,,,,,,,,,,,,,,,,LD,FALSE,
ELEC,Butler Nissan,4500 Riverside Dr,,Macon,GA,31206,,478-781-8440,E,,Public,Dealership business hours,,,,,,1,,,Non-Networked,,GPS,32.914983,-83.706271,1/13/2026,46658,2026-02-02 23:16:24 UTC,P,,,5/1/2012,,,,,J1772,US,,,,Public,,public,,,CAR_DEALER,,,,,,,,,,,,,,,,,FALSE,,,,,,,,LD,FALSE,
ELEC,Butler Nissan,4500 Riverside Dr,,Macon,GA,31206,,478-781-8440,E,,Public,Dealership business hours,,,,,,1,,,Non-Networked,,GPS,32.914983,-83.706271,1/13/2026,46659,2026-02-02 23:16:24 UTC,P,,,3/29/2016,,,,,J1772,US,,,,Public,,public,,,CAR_DEALER,,,,,,,,,,,,,,,,,TRUE,,,,,,,,LD,FALSE,
ELEC,Childre Nissan,126 Roberson Mill Rd,,Milledgeville,GA,31061,,478-452-5535,E,,Private,,,,,,,1,,,Non-Networked,,GPS,33.10605,-83.25783,1/13/2026,46663,2026-02-02 23:16:24 UTC,P,,,1/31/2012,,,,,J1772,US,,,,Privé,,private,,,CAR_DEALER,,,,,,,Free,,,,,,,,,,,,,,,,,,LD,FALSE,
ELEC,One Atlantic Center,1201 W Peachtree St,Stations are located on the W Peachtree Rd side of the parking deck near the exit on level B2,Atlanta,GA,30309,,,E,,Private,Tenant and guest use only,,,,,,19,,,Non-Networked,,200-9,33.787208,-84.387453,12/10/2024,46991,2025-02-12 00:16:32 UTC,P,,,5/15/2012,,,,,J1772,US,,,,Privé,,private,,,PARKING_GARAGE,,,,,,,,,,,,,,,,,,,,,,,,,LD,FALSE,
CNG,Premier Transportation,323 Cash Memorial Blvd,,Forest Park,GA,30297,,404-675-1950,E,,Public - Credit card at all times,24 hours daily,A D M V Voyager Wright_Exp,,Q,3600,,,,,,,200-9,33.607933,-84.372205,1/13/2025,47234,2025-11-06 18:09:36 UTC,P,,,4/14/2014,,HD,,,,US,,,,Public - Carte de crédit en tout temps,,public,CREDIT_CARD_ALWAYS,,STANDALONE_STATION,2,NONE,,,,,,,,,,Q,3600,HD,,,FALSE,,,,,,TRUE,,HD,,
ELEC,1180 Peachtree Building,1180 Peachtree St NE,NW corner of Peachtree and 14th St. 14th floor of Peachtree building parking garage,Atlanta,GA,30309,,,E,,Private,Tenant and guest use only; pay lot,,,,,,4,,,Non-Networked,,200-9,33.787,-84.383549,8/10/2022,47246,2023-02-15 22:45:41 UTC,P,,,6/6/2012,,,,,J1772,US,,,,Privé,,private,,,PAY_GARAGE,,,,,,,,,,,,,,,,,,,,,,,,,LD,FALSE,
LPG,Dixie LP Gas Inc,3711 Washington Rd,,Augusta,GA,30907,,706-863-1811,E,,Public,"8am-5pm M-F, 8am-12pm Sat",Cash M V,,,,,,,,,,200-9,33.514307,-82.083521,9/12/2025,47256,2026-02-02 23:16:24 UTC,P,,,6/11/2012,,,FALSE,,,US,,,,Public,,public,,,FUEL_RESELLER,,,,,,,,,ACME,,,,,,,,FALSE,,,,,,,,HD,,
E85,Chevron - Jack's Corner,100 John E Howard Dr,I-75 and GA 247 Connector (Watson Blvd),Byron,GA,31008,,478-956-5818,E,,Public,"6am-11 pm M-F, 7am-11am Sat, 8am-10pm Sun",A Cash D Debit M V Voyager Wright_Exp,,,,,,,,,,200-8,32.61063,-83.74693,2/13/2026,47451,2026-02-13 16:35:05 UTC,P,,,8/15/2011,,,,FALSE,,US,,,,Public,,public,,,CONVENIENCE_STORE,,,,,,,,,,,,,,,,,FALSE,,,,,,,,MD,,
ELEC,Gwinnett Place Nissan,2555 Pleasant Hill Rd,,Duluth,GA,30096,,770-476-7771,E,,Private,,,,,,,1,,,Non-Networked,,GPS,33.967654,-84.145717,1/13/2026,48380,2026-02-02 23:16:24 UTC,P,,,3/15/2011,,,,,J1772,US,,,,Privé,,private,,,CAR_DEALER,,,,,,,,,,,,,,,,,,,,,,,,,LD,FALSE,
ELEC,Carriage Nissan,2400 Browns Bridge Rd,,Gainesville,GA,30504,,770-532-6335,E,,Private,,,,,,,1,,,Non-Networked,,200-8,34.275207,-83.85946,2/12/2024,48381,2025-02-12 00:16:32 UTC,P,,,3/1/2011,,,,,J1772,US,,,,Privé,,private,,,CAR_DEALER,,,,,,,Free,,,,,,,,,,,,,,,,,,LD,FALSE,
ELEC,Stone Mountain Nissan,4275 Highway 78,,Lilburn,GA,30047,,678-252-3100,E,,Private,,,,,,,1,,,Non-Networked,,GPS,33.835823,-84.078087,1/13/2026,48384,2026-02-02 23:16:24 UTC,P,,,3/15/2011,,,,,J1772,US,,,,Privé,,private,,,CAR_DEALER,,,,,,,,,,,,,,,,,,,,,,,,,LD,FALSE,
ELEC,AutoNation Nissan - Thornton Road,811 Thornton Rd,,Lithia Springs,GA,30122,,770-674-6080,E,,Private,,,,,,,1,,,Non-Networked,,GPS,33.784102,-84.612838,1/13/2026,48385,2026-02-02 23:16:24 UTC,P,,,3/15/2011,,,,,J1772,US,,,,Privé,,private,,,CAR_DEALER,,,,,,,Free,,,,,,,,,,,,,,,,,,LD,FALSE,
ELEC,Nissan South,6889 Jonesboro Rd,,Morrow,GA,30260,,770-968-1360,E,,Private,,,,,,,1,,,Non-Networked,,GPS,33.56686057,-84.34480446,1/13/2026,48387,2026-02-02 23:16:24 UTC,P,,,3/15/2011,,,,,J1772,US,,,,Privé,,private,,,CAR_DEALER,,,,,,,Free,,,,,,,,,,,,,,,,,,,FALSE,
ELEC,Nissan South Union City,4080 Jonesboro Rd,,Union City,GA,30291,,,E,,Private,,,,,,,1,,,Non-Networked,,GPS,33.564678,-84.522362,1/13/2026,48389,2026-02-02 23:16:24 UTC,P,,,3/15/2011,,,,,J1772,US,,,,Privé,,private,,,CAR_DEALER,,,,,,,,,,,,,,,,,,,,,,,,,LD,FALSE,
ELEC,Five Star Nissan,839 Warren Dr,,Warner Robins,GA,31088,,478-987-5030,E,,Private,,,,,,,1,,,Non-Networked,,GPS,32.55538341,-83.66556566,1/13/2026,48390,2026-02-02 23:16:24 UTC,P,,,3/15/2011,,,,,J1772,US,,,,Privé,,private,,,CAR_DEALER,,,,,,,Free,,,,,,,,,,,,,,,,,,,FALSE,
ELEC,Bibb County Courthouse,275 2nd St,On 2nd street in front of the courthouse,Macon,GA,31201,,478-621-6400,T,6/1/2023,TEMPORARILY UNAVAILABLE (Public),24 hours daily,,,,,,1,,,Non-Networked,,GPS,32.83827,-83.6276,1/10/2023,48846,2025-10-09 16:11:54 UTC,LG,,,8/1/2012,,,,,J1772,US,,,,TEMPORAIREMENT SUSPENDU (Public),,public,,,STREET_PARKING,,,,,,,Free,,,,,,,,,,FALSE,,,,,,,,LD,FALSE,
CNG,Waste Management - Atlanta East,1243 Beaver Ruin Rd,,Norcross,GA,30093,,,E,,Private,,,,B,3600,,,,,,,200-9,33.925633,-84.139811,1/13/2026,49544,2026-02-02 23:16:24 UTC,P,,,12/21/2012,,HD,,,,US,,,,Privé,,private,,,FLEET_GARAGE,1,NONE,,,,,,,,,,B,3600,HD,,,,,,,,,TRUE,,HD,,
CNG,Enmarket Travel Center,7002 GA Highway 21,"Station is at the corner of Highway 21 and O'Leary Rd, just south of I-95.",Port Wentworth,GA,31407,,912-964-1593,E,,Public - Credit card at all times,"24 hours daily; Also accepts MultiService, enPay, Enmarket Cash Card, Enmarket Business Advantage",A Comdata D EFS FleetOne FuelMan M TCH V Voyager Wright_Exp,,Q,3600,,,,,,,200-9,32.189249,-81.192721,1/13/2025,49545,2025-11-06 18:09:36 UTC,P,,,6/9/2020,,HD,,,,US,,,,Public - Carte de crédit en tout temps,,public,CREDIT_CARD_ALWAYS,,TRUCK_STOP,2,,,,,,,,,,,Q,3600,HD,,,FALSE,,,,,,FALSE,,HD,,
E85,Chevron - EZ Trip,3601 Atlanta Rd SE,Off I-285 at Exit 18 (Paces Ferry/Vinings),Smyrna,GA,30080,,770-805-8888,E,,Public,6am-12am daily,A Cash D FuelMan M V Voyager Wright_Exp,,,,,,,,,,200-9,33.864975,-84.491965,9/12/2024,49557,2025-10-29 14:17:21 UTC,P,,,12/1/2012,,,,FALSE,,US,,,,Public,,public,,,CONVENIENCE_STORE,,,,,,,,,,,,,,,,,FALSE,,,,,,,,MD,,
ELEC,Dublin Nissan,2046 Veterans Blvd,,Dublin,GA,31021,,478-275-2660,E,,Private,,,,,,,1,,,Non-Networked,,GPS,32.541077,-82.953892,1/13/2026,49961,2026-02-02 23:16:24 UTC,P,,,10/25/2012,,,,,J1772,US,,,,Privé,,private,,,CAR_DEALER,,,,,,,Free,,,,,,,,,,,,,,,,,,LD,FALSE,
ELEC,Grainger Nissan,1550 Chatham Pkwy,,Garden City,GA,31408,,912-358-5858,E,,Private,,,,,,,1,,,Non-Networked,,GPS,32.074982,-81.158905,1/13/2026,49963,2026-02-02 23:16:24 UTC,P,,,10/25/2012,,,,,J1772,US,,,,Privé,,private,,,CAR_DEALER,,,,,,,Free,,,,,,,,,,,,,,,,,,LD,FALSE,
LPG,U-Haul,1589 Broad St,Old Claussen Bakery Bldg,Augusta,GA,30904,,706-722-4396,E,,Public - Call ahead,"7am-7pm M-Th and Sat, 7am-8pm F, 9am-5pm Sun",A Cash D M V,,,,,,,,,,200-9,33.48283,-81.986293,5/12/2025,50761,2026-02-02 23:16:24 UTC,P,,,2/14/2013,,,FALSE,,,US,,,,Public - Appeler à l'avance,,public,CALL,,RENTAL_CAR_RETURN,,,,,,,,,ACME QUICK_CONNECT,,,,,,,,FALSE,,,,,,,,HD,,
LPG,AmeriGas,4262 Interstate Dr,,Macon,GA,31210,,478-474-3414,E,,Private - Fleet customers only,Contact AmeriGas to set up fueling arrangements,,,,,,,,,,,200-9,32.8308,-83.728631,7/3/2025,51357,2026-02-02 23:16:24 UTC,P,,,4/16/2013,,,,,,US,,,,Privé - Réservé aux clients de parcs,,private,FLEET,,FUEL_RESELLER,,,,,,,,,ACME,,,,,,,,,,,,,,,,HD,,
ELEC,Southface,241 Pine St NE,Located on the right side of the complex at the end of the driveway.,Atlanta,GA,30308,,,E,,Private,Member and staff use only,,,,,,1,,,Non-Networked,,200-8,33.767508,-84.38028,1/13/2025,51522,2025-02-12 00:16:32 UTC,P,,,4/1/2013,,,,,J1772,US,,,,Privé,,private,,,PARKING_LOT,,,,,,,,,,,,,,,,,,,,,,,,,,FALSE,
LNG,Clean Energy - Albany,1540 Trailer Ln,,Albany,GA,31705,,866-809-4869,E,,Public - Credit card at all times,24 hours daily; call 866-809-4869 for Clean Energy card; Also accepts PFGift Card,A CleanEnergy Comdata D EFS FleetOne FuelMan M Speedway TCH Tchek V Voyager Wright_Exp,,,,,,,,,,200-9,31.539253,-84.102677,9/12/2025,51606,2026-02-02 23:16:24 UTC,P,,,10/31/2014,,HD,,,,US,,,,Public - Carte de crédit en tout temps,,public,CREDIT_CARD_ALWAYS,,STANDALONE_STATION,,,,,NONE,,,,,,,,,,HD,,FALSE,,,,,,,TRUE,HD,,
CNG,City of Atlanta,1120 North Ave NW,,Atlanta,GA,30318,,,E,,Private - Government only,,,,B,3600,,,,,,,200-8,33.768283,-84.426533,1/13/2025,51607,2025-11-06 18:09:36 UTC,J,,,1/11/2016,,HD,,,,US,,,,Privé - Réservé au gouvernement,,private,GOVERNMENT,,MUNI_GOV,31,,,,,,,,,,,B,3600,HD,,,,,,,,,FALSE,,HD,,
CNG,City of Atlanta,128 Claire Dr,,Atlanta,GA,30315,,,E,,Private - Government only,,,,B,3600,,,,,,,200-8,33.705075,-84.383939,1/13/2025,51608,2025-11-06 18:09:36 UTC,J,,,1/11/2016,,HD,,,,US,,,,Privé - Réservé au gouvernement,,private,GOVERNMENT,,MUNI_GOV,31,,,,,,,,,,,B,3600,HD,,,,,,,,,FALSE,,HD,,
E85,Gateway Quickstop,2 Gateway Blvd E,,Savannah,GA,31419,,912-349-0075,E,,Public - Credit card after hours,6am-11:30pm daily,A Cash D FuelMan M V Voyager Wright_Exp,,,,,,,,,,200-9,32.004788,-81.280219,9/12/2024,51625,2025-07-29 18:38:53 UTC,P,,,2/14/2020,,,,FALSE,,US,,,,Public - Carte de crédit après les heures d'ouverture,,public,CREDIT_CARD_AFTER_HOURS,,CONVENIENCE_STORE,,,,,,,,,,,,,,,,,FALSE,,,,,,,,MD,,
CNG,City of Augusta,3035 Tobacco Rd,U.S. Highway 1,Hephzibah,GA,30815,,706-829-1273,E,,Public - Credit card at all times,24 hours daily,A D M V Voyager Wright_Exp,,Q,3600,,,,,,,200-9,33.392931,-82.11295,1/13/2025,51876,2025-11-06 18:09:36 UTC,LG,,,5/1/2013,,HD,,,,US,,,,Public - Carte de crédit en tout temps,,public,CREDIT_CARD_ALWAYS,,MUNI_GOV,2,,,,,,,,,,,Q,3600,HD,,,FALSE,,,,,,,,HD,,
ELEC,Peachy Airport Parking,3025 Sylvan Rd,,Atlanta,GA,30354,,404-767-7275,E,,Public,24 hours daily; reservations accepted; Drivers must bring their own J1772 cordset for Level 1 charging,,,,,60,,,,Non-Networked,,200-9,33.669868,-84.418478,9/12/2025,52108,2026-02-02 23:16:24 UTC,P,,,5/1/2013,,,,,NEMA515,US,,,,Public,,public,,,PAY_GARAGE,,,,,,,Free; pay lot,,,,,,,,,,FALSE,,,,,,,,LD,TRUE,
CNG,Chevron CNG Station 387967,523 Perry Pkwy,,Perry,GA,31069,,877-872-3966,E,,Public - Credit card at all times,24 hours daily,A D FuelMan M V Wright_Exp,,Q,3600,,,,,,,GPS,32.49244,-83.7404,11/13/2025,52202,2026-02-02 23:16:24 UTC,P,,,12/16/2013,,HD,,,,US,,,,Public - Carte de crédit en tout temps,,public,CREDIT_CARD_ALWAYS,,TRUCK_STOP,0,NONE,1380,,,,,,,,,Q,3600,HD,,,FALSE,,,,,,TRUE,,HD,,
CNG,DeKalb County - Central,3720 Leroy Scott Dr,Located at the DeKalb sanitation transfer station behind the law complex at I-285 and Memorial Dr,Decatur,GA,30032,,404-297-4434,E,,Public - Credit card at all times,6am-10pm M-F,M V Voyager Wright_Exp,,Q,3600,,,,,,,200-9,33.771564,-84.239687,10/11/2024,52686,2025-11-14 20:12:42 UTC,LG,,,3/15/2016,,HD,,,,US,,,,Public - Carte de crédit en tout temps,,public,CREDIT_CARD_ALWAYS,,MUNI_GOV,1,LANDFILL,,,,,,,,,,Q,3600,HD,,,FALSE,,,,,,TRUE,,HD,,
ELEC,Kennesaw State University - P60 Parking Deck,N Hornet Dr,Located on the 4th floor,Marietta,GA,30060,,470-578-5114,E,,Public,24 hours daily; non-permit holders must move their vehicle to visitor parking after completing charge,,,,,,1,,,Non-Networked,,GPS,33.937899,-84.522281,1/9/2024,52905,2024-01-31 22:07:01 UTC,P,,,9/1/2013,,,,,J1772,US,,,,Public,,public,,,COLLEGE_CAMPUS,,,,,,,Free,,,,,,,,,,FALSE,,,,,,,,LD,FALSE,
CNG,American Fueling Systems - Covington Green Fuels Facility,10010 City Pond Rd,At Alcovy Rd,Covington,GA,30014,,770-385-2000,E,,Public - Credit card at all times,24 hours daily,A D M V Wright_Exp,,Q,3600,,,,,,,200-9,33.618609,-83.843952,10/11/2024,53627,2025-11-10 17:04:34 UTC,LG,,,12/16/2014,,HD,,,,US,,,,Public - Carte de crédit en tout temps,,public,CREDIT_CARD_ALWAYS,,MUNI_GOV,2,,1000,60000,,,,,,,,Q,3600,HD,,,FALSE,,,,,,FALSE,,HD,,
E85,RaceTrac #2324,2250 Camp Creek Pkwy,,College Park,GA,30337,,404-767-4117,E,,Public,24 hours daily,A Cash D M V Voyager Wright_Exp,,,,,,,,,,200-9,33.64853,-84.462991,9/12/2025,53655,2026-02-02 23:16:24 UTC,P,,,11/5/2013,,,,FALSE,,US,,,,Public,,public,,,CONVENIENCE_STORE,,,,,,,,,,,,,,,,,FALSE,,,,,,,,MD,,
LPG,Conger LP Gas,146 S Ridge Ave,,Tifton,GA,31794,,229-386-5574,E,,Public,8am-5pm M-F,A Cash Checks D Debit M V,,,,,,,,,,200-9,31.454244,-83.515717,8/12/2025,54019,2026-02-02 23:16:24 UTC,P,,,1/20/2014,,,TRUE,,,US,,,,Public,,public,,,FUEL_RESELLER,,,,,,,,,ACME QUICK_CONNECT,,,,,,,,FALSE,,,,,,,,HD,,
ELEC,Hotel Indigo,500 College Ave,College Ave & E Dougherty St,Athens,GA,30601,,706-546-0430,E,,Public,24 hours daily; guest use only; see front desk for access,,,,,,2,,,Non-Networked,,200-9,33.962319,-83.376296,8/12/2025,54072,2026-02-02 23:16:24 UTC,P,,,1/30/2020,,,,,J1772,US,,,,Public,,public,,,HOTEL,,,,,,,Free,,,,,,,,,,TRUE,,,,,,,,LD,FALSE,
CNG,Trillium - Magic Truck Stop,4590 Fulton Industrial Blvd,,Atlanta,GA,30336,,,E,,Public,24 hours daily,A Cash D EFS FuelMan M TCH Tchek Trillium V Voyager Wright_Exp,,Q,3600,,,,,,,GPS,33.76147911463073,-84.53619239,11/13/2025,60213,2026-02-02 23:16:24 UTC,P,,,7/24/2015,,HD,,,,US,,,,Public,,public,,,TRUCK_STOP,0,NONE,1400,,,,,,,,,Q,3600,HD,,,FALSE,,,,,,TRUE,,HD,,
E85,Robins Air Force Base,640 2nd St,,Macon,GA,31098,,,E,,Private - Government only,Also accepts paying arrangement made with station manager,Wright_Exp,,,,,,,,,,GPS,32.619389,-83.602222,8/10/2023,60214,2026-02-02 23:16:24 UTC,FG,5,Department of Air Force,1/1/2014,,,,FALSE,,US,,,,Privé - Réservé au gouvernement,,private,GOVERNMENT,DAF,MIL_BASE,,,,,,,,,,,,,,,,,,,,,,,,,LD,,
ELEC,Vaden Nissan of Hinesville,1009 E Oglethorpe Hwy,,Hinesville,GA,31313,,912-368-1680,E,,Private,,,,,,,1,,,Non-Networked,,GPS,31.85345698,-81.57685485,1/13/2026,61409,2026-02-02 23:16:24 UTC,P,,,2/1/2014,,,,,J1772,US,,,,Privé,,private,,,CAR_DEALER,,,,,,,Free,,,,,,,,,,,,,,,,,,LD,FALSE,
ELEC,Nissan of LaGrange,224 Commerce Ave,,LaGrange,GA,30241,,706-884-1744,E,,Private,,,,,,,1,,,Non-Networked,,200-9,33.048536,-85.018055,2/12/2024,61413,2025-02-12 00:16:32 UTC,P,,,2/1/2014,,,,,J1772,US,,,,Privé,,private,,,CAR_DEALER,,,,,,,Free,,,,,,,,,,,,,,,,,,LD,FALSE,
ELEC,Cronic Nissan,2624 N Expy,,Griffin,GA,30223,,678-967-2277,E,,Public - Call ahead,Dealership business hours,,,,,,2,2,,Non-Networked,,200-9,33.304797,-84.290372,2/12/2024,61416,2025-02-12 00:16:32 UTC,P,,,2/1/2014,,,,,CHADEMO J1772 J1772COMBO,US,,,,Public - Appeler à l'avance,,public,CALL,,CAR_DEALER,,,,,,,Free,,,,,,,,,,FALSE,,,,,,,,LD,FALSE,
ELEC,GEORGIA STATE G DECK EV2,52 Courtland St SE,Located on the 4th floor near the entrance.,Atlanta,GA,30303,,888-758-4389,E,,Public,24 hours daily,,,,,,2,,,ChargePoint Network,https://www.chargepoint.com,GPS,33.751991,-84.387318,3/2/2026,62062,2026-03-02 01:19:57 UTC,,,,6/7/2014,,,,,J1772,US,,,,Public,,public,,,,,,,,,,,,,,,,,,,,FALSE,,,,,,,,,FALSE,
ELEC,Courtland Grand Hotel,165 Courtland St NE,"Located on left side of the parking garage, see valet",Atlanta,GA,30303,,404-659-6500,E,,Public,Garage business hours; for guest use only; see valet for access; Drivers must bring their own J1772 cordset for Level 1 charging,,,,,1,1,,,Non-Networked,,200-8,33.75886,-84.384194,11/13/2025,62519,2026-02-02 23:16:24 UTC,P,,,1/12/2014,,,,,J1772 NEMA520,US,,,,Public,,public,,,HOTEL,,,,,,,Free; parking fee,,,,,,,,,,TRUE,,,,,,,,LD,FALSE,
ELEC,Piedmont Park - Atlanta Botanical Garden,1345 Piedmont Rd NE,Garage accessible via Monroe (Evelyn St.) or Piedmont Rd.,Atlanta,GA,30309,,404-876-5859,E,,Public,Garage business hours,A M V,,,,,8,,,ENVIROSPARK,https://envirosparkenergy.com,200-9,33.789969,-84.372649,11/13/2025,62521,2026-02-02 23:16:24 UTC,P,,,7/18/2014,,,,,J1772,US,,,,Public,,public,,,PARKING_GARAGE,,,,,,,Free,,,,,,,,,,FALSE,,,,,,,,LD,FALSE,
CNG,Refuel CNG,1330 W Jackson St,"At the intersection of routes 84 and 19 in south central Georgia, about 50 miles north of Tallahassee",Thomasville,GA,31792,,,E,,Private - Credit card at all times,24 hours daily,D FuelMan M V Voyager Wright_Exp,,Q,3600,,,,,,,200-8,30.818047,-83.999657,10/11/2024,62603,2025-11-06 15:58:12 UTC,LG,,,6/24/2014,,HD,,,,US,,,,Privé - Carte de crédit en tout temps,,private,CREDIT_CARD_ALWAYS,,STANDALONE_STATION,1,,,,,,,,,,,Q,3600,HD,,,,,,,,,FALSE,,HD,,
ELEC,Southbound Restaurant,5394 Peachtree Rd,Located to the east of the entrance from the lot,Chamblee,GA,30341,,678-580-5579,E,,Public,24 hours daily; for customer use only,,,,,,6,,,ENVIROSPARK,https://envirosparkenergy.com,GPS,33.892288,-84.301018,11/13/2025,62713,2026-02-02 23:16:24 UTC,P,,,7/1/2014,,,,,J1772,US,,,,Public,,public,,,RESTAURANT,,,,,,,$0.40 per kWh,,,,,,,,,,TRUE,,,,,,,,,FALSE,
CNG,US Energy - Smyrna,4960 Plant Atkinson Rd,,Smyrna,GA,30080,,800-438-7912,E,,Public - Credit card at all times,24 hours daily; Also accepts Diners Club and JCB,A CFN Comdata D EFS FleetOne FuelMan GasCard M TCH Tchek V Voyager Wright_Exp,,Q,3600,,,,,,,GPS,33.8324679,-84.4810285,11/13/2025,62909,2026-02-02 23:16:24 UTC,P,,,6/15/2015,,HD,,,,US,,,,Public - Carte de crédit en tout temps,,public,CREDIT_CARD_ALWAYS,,STANDALONE_STATION,2,NONE,975,36000,,,,,,,,Q,3600,HD,,,FALSE,,,,,,TRUE,,HD,,
ELEC,Park 'N Ticket,3945 Conley St,Top deck,College Park,GA,30337,,404-669-3800,E,,Public - Call ahead,Garage business hours; pay lot; Drivers must bring their own J1772 cordset for Level 1 charging,,,,,17,,,,Non-Networked,,GPS,33.647979,-84.454573,8/15/2024,63246,2025-02-12 00:16:32 UTC,P,,,9/2/2014,,,,,NEMA520,US,,,,Public - Appeler à l'avance,,public,CALL,,PAY_GARAGE,,,,,,,Free,,,,,,,,,,FALSE,,,,,,,,LD,FALSE,
E85,BP,12 Shorter Ave SW,,Rome,GA,30165,,706-295-4280,E,,Public - Credit card after hours,5am-12am daily,A Cash D Debit M V Voyager Wright_Exp,,,,,,,,,,200-9,34.26184,-85.18426,8/12/2025,63265,2026-02-02 23:16:24 UTC,P,,,9/1/2014,,,,FALSE,,US,,,,Public - Carte de crédit après les heures d'ouverture,,public,CREDIT_CARD_AFTER_HOURS,,CONVENIENCE_STORE,,,,,,,,,,,,,,,,,FALSE,,,,,,,,MD,,
ELEC,Publix #1154,12800 Georgia 144,Located in the parking lot in front of the store,Richmond Hill,GA,31324,,912-459-1171,E,,Public,Store business hours; customer use only while shopping at Publix,,,,,,1,,,Non-Networked,,GPS,31.909521,-81.27874,12/10/2024,63520,2025-02-12 00:16:32 UTC,P,,,8/1/2014,,,,,J1772,US,,,,Public,,public,,,GROCERY,,,,,,,"Free, only while shopping in Publix",,,,,,,,,SOLAR,TRUE,,,,,,,,LD,FALSE,
ELEC,Whole Foods Market,1815 E Victory Dr,Located at the front of the store next to the handicap parking,Savannah,GA,31404,,912-358-5829,T,7/14/2026,TEMPORARILY UNAVAILABLE (Public),24 hours daily,,,,,,2,,,Non-Networked,,200-9,32.044095,-81.071495,8/12/2025,63521,2026-02-02 23:16:24 UTC,P,,,9/1/2013,,,,,J1772,US,,,,TEMPORAIREMENT SUSPENDU (Public),,public,,,GROCERY,,,,,,,Free,,,,,,,,,,FALSE,,,,,,,,LD,FALSE,
ELEC,Eagle Creek Brewing Co,106 Savannah Ave,,Statesboro,GA,30458,,912-489-2337,E,,Public - Call ahead,Brewery business hours; for Tesla use only; call ahead to make appointment,,,,,,1,,,Non-Networked,,200-9,32.448106,-81.779944,1/13/2026,63522,2026-02-02 23:16:24 UTC,P,,,9/1/2013,,,,,TESLA,US,,,,Public - Appeler à l'avance,,public,CALL,,RESTAURANT,,,,,,,,,,,,,,,,,TRUE,,,,,,,,LD,FALSE,
ELEC,Kroger,1931 Jesse Jewell Pkwy,,Gainesville,GA,30501,,470-252-3182,E,,Public,24 hours daily,,,,,,2,,,Non-Networked,,200-8,34.283903,-83.848362,9/12/2025,63524,2026-02-02 23:16:24 UTC,P,,,3/1/2014,,,,,J1772,US,,,,Public,,public,,,GROCERY,,,,,,,Free,,,,,,,,,,FALSE,,,,,,,,LD,FALSE,
CNG,City of Douglas,1331 Pope Dr,,Douglas,GA,31533,,912-389-3427,E,,Public - Credit card at all times,24 hours daily,A D FuelMan M V Voyager Wright_Exp,,Q,3600,,,,,,,200-8,31.490414,-82.865433,12/12/2025,64019,2026-02-02 23:16:24 UTC,LG,,,10/8/2014,,HD,,,,US,,,,Public - Carte de crédit en tout temps,,public,CREDIT_CARD_ALWAYS,,MUNI_GOV,2,,308,46957,,,,,,,,Q,3600,HD,,,FALSE,,,,,,FALSE,,HD,,
CNG,Albany Transit Authority,712 Flint Ave,,Albany,GA,31701,,,E,,Private,,,,Q,3600,,,,,,,200-9,31.579551,-84.165929,1/13/2025,64056,2025-11-06 18:09:36 UTC,LG,,,6/7/2016,,HD,,,,US,,,,Privé,,private,,,MUNI_GOV,1,,,,,,,,,,,Q,3600,HD,,,,,,,,,FALSE,,HD,,
ELEC,City of Cornelia - Train Depot,109 Grant Pl,"Located in the parking lot, just off of Clarkesville St next to the wooden fence and water splash park area",Cornelia,GA,30531,,706-778-8585,E,,Public,24 hours daily,,,,,,1,,,Non-Networked,,200-8,34.512321,-83.525769,5/12/2025,64138,2026-02-02 23:16:24 UTC,LG,,,3/21/2014,,,,,J1772,US,,,,Public,,public,,,PARK,,,,,,,Free,,,,,,,,,,FALSE,,,,,,,,LD,FALSE,
ELEC,City of Cornelia - North Fire Station,347 Old Historic Highway 441 N,,Cornelia,GA,30531,,706-778-8585,E,,Public,24 hours daily,,,,,,1,,,Non-Networked,,GPS,34.541644,-83.543244,12/10/2024,64139,2025-02-12 00:16:32 UTC,LG,,,11/1/2014,,,,,J1772,US,,,,Public,,public,,,FIRE_STATION,,,,,,,Free,,,,,,,,,,FALSE,,,,,,,,LD,FALSE,
CNG,Mansfield Clean Energy Partners,2765 Woodwin Rd,,Atlanta,GA,30360,,,E,,Public - Credit card at all times,24 hours daily; call 866-809-4869 for Clean Energy card,CleanEnergy Comdata FleetOne FuelMan M V Voyager Wright_Exp,,Q,3600,,,,,,,200-9,33.916342,-84.274911,11/13/2025,64229,2026-02-02 23:16:24 UTC,P,,,11/1/2014,,HD,,,,US,,,,Public - Carte de crédit en tout temps,,public,CREDIT_CARD_ALWAYS,,STANDALONE_STATION,2,NONE,,,,,,,,,,Q,3600,HD,,,FALSE,,,,,,TRUE,,HD,,
CNG,Clean Energy - Atlanta Fulton Industrial Park,5955 Bakers Ferry Rd SW,,Atlanta,GA,30336,,866-809-4869,T,10/22/2025,TEMPORARILY UNAVAILABLE (Public - Credit card at all times),24 hours daily; call 866-809-4869 for Clean Energy card; Also accepts PFGiftCard,A CleanEnergy Comdata D EFS FleetOne FuelMan M Proprietor Speedway SuperPass TCH V Voyager Wright_Exp,,Q,3600,,,,,,,200-9,33.732199,-84.574809,9/12/2025,65769,2026-02-02 23:16:24 UTC,P,,,6/15/2016,,HD,,,,US,,,,TEMPORAIREMENT SUSPENDU (Public - Carte de crédit en tout temps),,public,CREDIT_CARD_ALWAYS,,STANDALONE_STATION,1,NONE,,,,,,,,,,Q,3600,HD,,,FALSE,,,,,,TRUE,,HD,,
LPG,Flying J,10226 Old Federal Rd,I-85 Exit 160,Carnesville,GA,30521,,706-335-6656,E,,Public,24 hours daily,A Cash Checks D M V,,,,,,,,,,200-9,34.346914,-83.321912,1/13/2025,66077,2025-02-12 00:16:32 UTC,P,,,2/15/2015,,,FALSE,,,US,,,,Public,,public,,,GAS_STATION,,,,,,,,,ACME,,,,,,,,FALSE,,,,,,,,HD,,
LPG,Pilot Travel Center,2201 E 16th Ave,I-75 Exit 101,Cordele,GA,31015,,229-271-5775,E,,Public,24 hours daily,A Cash Checks D M V,,,,,,,,,,200-9,31.959706,-83.746863,9/12/2025,66085,2026-02-02 23:16:24 UTC,P,,,2/15/2015,,,FALSE,,,US,,,,Public,,public,,,GAS_STATION,,,,,,,,,ACME,,,,,,,,FALSE,,,,,,,,HD,,
LPG,Flying J,3600 Highway 77 S,I-20 & Exit 138,Union Point,GA,30669,,706-486-4835,E,,Public,24 hours daily,A Cash Checks D M V,,,,,,,,,,GPS,33.54684089612006,-83.07775618,8/12/2025,66203,2026-02-02 23:16:24 UTC,P,,,2/15/2015,,,FALSE,,,US,,,,Public,,public,,,GAS_STATION,,,,,,,,,ACME,,,,,,,,FALSE,,,,,,,,HD,,
ELEC,NORTHWINDS NORTHWINDS 2,2520 Northwinds Pkwy,,Alpharetta,GA,30009,,888-758-4389,E,,Public,24 hours daily,,,,,,2,,,ChargePoint Network,https://www.chargepoint.com,GPS,34.059969,-84.284363,3/2/2026,66606,2026-03-02 01:54:11 UTC,,,,4/3/2015,,,,,J1772,US,,,,Public,,public,,,,,,,,,,,,,,,,,,,,FALSE,,,,,,,,,FALSE,
ELEC,Carl Miller Park,74 Sewell Rd,,Newnan,GA,30263,,770-683-5516,E,,Public,8am-9pm daily,,,,,,2,,,Non-Networked,,200-8,33.359198,-84.803283,8/12/2025,66906,2026-02-02 23:16:24 UTC,LG,,,1/1/2015,,,,,J1772,US,,,,Public,,public,,,PARK,,,,,,,Free,,,,,,,,,,FALSE,,,,,,,,LD,FALSE,
ELEC,DeKalb Peachtree Airport,2000 Airport Rd,,Atlanta,GA,30341,,770-936-5440,E,,Public - Call ahead,24 hours daily; call ahead to obtain code to use the charger,,,,,,4,,,Non-Networked,,200-9,33.874961,-84.301305,12/12/2025,67099,2026-02-02 23:16:24 UTC,P,,,1/16/2017,,,,,J1772,US,,,,Public - Appeler à l'avance,,public,CALL,,AIRPORT,,,,,,,Free,,,,,,,,,,FALSE,,,,,,,,LD,FALSE,
ELEC,City of Americus - Welcome Center,101 W Lamar St,Attached to the City Hall building,Americus,GA,31709,,229-928-6059,E,,Public,24 hours daily,,,,,,1,,,Non-Networked,,200-8,32.072192,-84.232577,9/12/2025,67101,2026-02-02 23:16:24 UTC,LG,,,5/1/2015,,,,,J1772,US,,,,Public,,public,,,MUNI_GOV,,,,,,,Free,,,,,,,,,,FALSE,,,,,,,,LD,FALSE,
ELEC,Newnan Utilities,315 Millard Farmer Industrial Blvd,Millard Farmer Industrial Blvd & Hillwood Cir,Newnan,GA,30263,,770-683-5516,E,,Public,8am-5pm M-F,,,,,,2,,,Non-Networked,,GPS,33.40016,-84.78589,8/15/2024,68000,2025-02-12 00:16:32 UTC,T,,,6/1/2015,,,,,J1772,US,,,,Public,,public,,,UTILITY,,,,,,,Free,,,,,,,,,,FALSE,,,,,,,,LD,FALSE,
ELEC,Marine Corps Logistic Base - Albany,814 Radford Blvd,,Albany,GA,31704,,,E,,Private - Government only,,,,,,,1,,,Non-Networked,,GPS,31.551225,-84.066879,8/10/2023,68541,2026-02-02 23:16:24 UTC,FG,26,United States Marine Corps,7/15/2015,,,,,J1772,US,,,,Privé - Réservé au gouvernement,,private,GOVERNMENT,USMC,MIL_BASE,,,,,,,,,,,,,,,,SOLAR,,,,,,,,,LD,TRUE,
ELEC,Federal Law Enforcement Training Center Glynco,1131 Chapel Crossing Rd,,Glynco,GA,31524,,,E,,Private - Government only,DHS fleet use only; call ahead,,,,,,1,,,Non-Networked,,GPS,31.228369,-81.462842,1/10/2024,68544,2026-02-02 23:16:24 UTC,FG,10,Department of Homeland Security,7/15/2015,,,,,J1772,US,,,,Privé - Réservé au gouvernement,,private,GOVERNMENT,DHS,FED_GOV,,,,,,,,,,,,,,,,,,,,,,,,,LD,TRUE,
LPG,Mayfield Ace Hardware,2171 Elm St NE,,Covington,GA,30014,,770-786-2550,E,,Public,"8am-7pm M-Sat, 10am-6pm Sun",A APPLE_PAY Cash D M V,,,,,,,,,,200-8,33.601227,-83.857347,9/12/2025,68616,2026-02-02 23:16:24 UTC,P,,,7/31/2015,,,TRUE,,,US,,,,Public,,public,,,HARDWARE_STORE,,,,,,,,,ACME,,,,,,,,FALSE,,,,,,,,HD,,
ELEC,City of Suwanee,330 Town Center Ave,,Suwanee,GA,30024,,770-945-8996,E,,Public,24 hours daily; Google Pay,A APPLE_PAY M V,,,,,4,,,ENVIROSPARK,https://envirosparkenergy.com,GPS,34.055372,-84.06375,11/13/2025,68859,2026-02-02 23:16:24 UTC,LG,,,7/1/2015,,,,,J1772,US,,,,Public,,public,,,MUNI_GOV,,,,,,,$0.40 per kWh,,,,,,,,,,FALSE,,,,,,,,LD,FALSE,
ELEC,GA GWINNETT COL BLDG A LOT,1000 University Center Lane,Building A Lot,Lawrenceville,GA,30043,,888-758-4389,E,,Public,24 hours daily,,,,,,2,,,ChargePoint Network,https://www.chargepoint.com,GPS,33.979426,-84.000113,3/2/2026,69053,2026-03-02 01:37:18 UTC,,,,8/15/2015,,,,,J1772,US,,,,Public,,public,,,,,,,,,,,,,,,,,,,,FALSE,,,,,,,,,FALSE,
ELEC,GEORGIA POWER L'VILLE L2,1453 HIGHWAY 120,,Lawrenceville,GA,30043,,888-758-4389,E,,Public,24 hours daily,,,,,,2,,,ChargePoint Network,https://www.chargepoint.com,GPS,33.972818,-84.052222,3/2/2026,69151,2026-03-02 01:16:56 UTC,,,,8/21/2015,,,,,J1772,US,,,,Public,,public,,,,,,,,,,,,,,,,,,,,FALSE,,,,,,,,,FALSE,
CNG,Waste Management - Macon TSE,2201 Trade Dr,,Macon,GA,31217,,,E,,Private,,,,T,3600,,,,,,,200-9,32.84618,-83.58592,1/13/2026,70086,2026-02-02 23:16:24 UTC,P,,,7/5/2015,,HD,,,,US,,,,Privé,,private,,,FLEET_GARAGE,1,NONE,,,,,,,,,,T,3600,HD,,,,,,,,,TRUE,,HD,,
LPG,U-Haul,820 W Oglethorpe Blvd,,Albany,GA,31701,,229-883-1854,E,,Public - Call ahead,"7am-7pm M-Th and Sat, 7am-8pm F, 9am-5pm Sun",A Cash D M V,,,,,,,,,,GPS,31.574869,-84.168778,5/12/2025,70173,2026-02-02 23:16:24 UTC,P,,,10/2/2015,,,FALSE,,,US,,,,Public - Appeler à l'avance,,public,CALL,,RENTAL_CAR_RETURN,,,,,,,,,ACME QUICK_CONNECT,,,,,,,,FALSE,,,,,,,,HD,,
LPG,U-Haul,2900 Atlanta Hwy,,Athens,GA,30606,,706-548-8080,E,,Public - Call ahead,"7am-7pm M-Th and Sat, 7am-8pm F, 9am-5pm Sun",A Cash D M V,,,,,,,,,,200-9,33.945372,-83.43763,5/12/2025,70174,2026-02-02 23:16:24 UTC,P,,,10/2/2015,,,FALSE,,,US,,,,Public - Appeler à l'avance,,public,CALL,,RENTAL_CAR_RETURN,,,,,,,,,ACME QUICK_CONNECT,,,,,,,,FALSE,,,,,,,,HD,,
LPG,U-Haul,6380 Hickory Flat Hwy,,Canton,GA,30115,,770-479-2313,E,,Public - Call ahead,"7am-7pm M-Th and Sat, 7am-8pm F, 9am-5pm Sun",A Cash D M V,,,,,,,,,,200-9,34.17343,-84.416582,5/12/2025,70175,2026-02-02 23:16:24 UTC,P,,,10/2/2015,,,FALSE,,,US,,,,Public - Appeler à l'avance,,public,CALL,,RENTAL_CAR_RETURN,,,,,,,,,ACME QUICK_CONNECT,,,,,,,,FALSE,,,,,,,,HD,,
LPG,U-Haul,885 Northern Ave,,Clarkston,GA,30021,,404-294-7368,E,,Public - Call ahead,"7am-7pm M-Th and Sat, 7am-8pm F, 9am-5pm Sun",A Cash D M V,,,,,,,,,,200-8,33.802365,-84.246772,5/12/2025,70176,2026-02-02 23:16:24 UTC,P,,,10/2/2015,,,FALSE,,,US,,,,Public - Appeler à l'avance,,public,CALL,,RENTAL_CAR_RETURN,,,,,,,,,ACME QUICK_CONNECT,,,,,,,,FALSE,,,,,,,,HD,,
LPG,U-Haul,5400 Old National Hwy,,College Park,GA,30349,,404-767-0766,E,,Public - Call ahead,"7am-7pm M-Th and Sat, 7am-8pm F, 9am-5pm Sun",A Cash D M V,,,,,,,,,,200-9,33.608665,-84.470212,5/12/2025,70177,2026-02-02 23:16:24 UTC,P,,,10/2/2015,,,FALSE,,,US,,,,Public - Appeler à l'avance,,public,CALL,,RENTAL_CAR_RETURN,,,,,,,,,ACME QUICK_CONNECT,,,,,,,,FALSE,,,,,,,,HD,,
LPG,U-Haul,2041 Southampton Rd,,College Park,GA,30349,,770-994-0453,E,,Public,"7am-7pm M-Th and Sat, 7am-8pm F, 9am-5pm Sun",A Cash D M V,,,,,,,,,,GPS,33.616331,-84.456031,1/9/2024,70178,2024-01-31 22:07:01 UTC,P,,,10/2/2015,,,FALSE,,,US,,,,Public,,public,,,RENTAL_CAR_RETURN,,,,,,,,,,,,,,,,,FALSE,,,,,,,,,,
LPG,U-Haul,930 10th Ave,,Columbus,GA,31901,,706-324-4336,E,,Public - Call ahead,"7am-7pm M-Th and Sat, 7am-8pm F, 9am-5pm Sun",A Cash D M V,,,,,,,,,,200-9,32.46418,-84.979317,5/12/2025,70179,2026-02-02 23:16:24 UTC,P,,,10/2/2015,,,FALSE,,,US,,,,Public - Appeler à l'avance,,public,CALL,,RENTAL_CAR_RETURN,,,,,,,,,ACME QUICK_CONNECT,,,,,,,,FALSE,,,,,,,,HD,,
LPG,U-Haul,1700 Box Rd,,Columbus,GA,31907,,706-568-0322,E,,Public - Call ahead,"7am-7pm M-Th and Sat, 7am-8pm F, 9am-5pm Sun",A Cash D M V,,,,,,,,,,200-9,32.479122,-84.935654,5/12/2025,70180,2026-02-02 23:16:24 UTC,P,,,10/2/2015,,,FALSE,,,US,,,,Public - Appeler à l'avance,,public,CALL,,RENTAL_CAR_RETURN,,,,,,,,,ACME QUICK_CONNECT,,,,,,,,FALSE,,,,,,,,HD,,
LPG,U-Haul,1150 Dogwood Dr SE,,Conyers,GA,30012,,770-761-3888,E,,Public - Call ahead,"7am-7pm M-Th and Sat, 7am-8pm F, 9am-5pm Sun",A Cash D M V,,,,,,,,,,GPS,33.655459,-84.008626,5/12/2025,70181,2026-02-02 23:16:24 UTC,P,,,10/2/2015,,,FALSE,,,US,,,,Public - Appeler à l'avance,,public,CALL,,RENTAL_CAR_RETURN,,,,,,,,,ACME QUICK_CONNECT,,,,,,,,FALSE,,,,,,,,HD,,
LPG,U-Haul,2505 Candler Rd,,Decatur,GA,30032,,404-241-6021,E,,Public - Call ahead,"7am-7pm M-Th and Sat, 7am-8pm F, 9am-5pm Sun",A Cash D M V,,,,,,,,,,200-9,33.716828,-84.275641,5/12/2025,70182,2026-02-02 23:16:24 UTC,P,,,10/2/2015,,,FALSE,,,US,,,,Public - Appeler à l'avance,,public,CALL,,RENTAL_CAR_RETURN,,,,,,,,,ACME QUICK_CONNECT,,,,,,,,FALSE,,,,,,,,HD,,
LPG,U-Haul,9416 Highway 5,,Douglasville,GA,30135,,678-838-0121,E,,Public - Call ahead,"7am-7pm M-Th and Sat, 7am-8pm F, 9am-5pm Sun",A Cash D M V,,,,,,,,,,200-9,33.727005,-84.76151,5/12/2025,70183,2026-02-02 23:16:24 UTC,P,,,10/2/2015,,,FALSE,,,US,,,,Public - Appeler à l'avance,,public,CALL,,RENTAL_CAR_RETURN,,,,,,,,,ACME QUICK_CONNECT,,,,,,,,FALSE,,,,,,,,HD,,
LPG,U-Haul,4374 Thurman Rd,,Forest Park,GA,30297,,404-366-3620,E,,Public - Call ahead,"7am-7pm M-Th and Sat, 7am-8pm F, 9am-5pm Sun",A Cash D M V,,,,,,,,,,200-9,33.635055,-84.357459,5/12/2025,70184,2026-02-02 23:16:24 UTC,P,,,10/2/2015,,,FALSE,,,US,,,,Public - Appeler à l'avance,,public,CALL,,RENTAL_CAR_RETURN,,,,,,,,,ACME QUICK_CONNECT,,,,,,,,FALSE,,,,,,,,HD,,
LPG,U-Haul,7308 Tara Blvd,,Jonesboro,GA,30236,,770-471-7956,E,,Public - Call ahead,"7am-7pm M-Th and Sat, 7am-8pm F, 9am-5pm Sun",A Cash D M V,,,,,,,,,,200-9,33.555005,-84.369817,5/12/2025,70185,2026-02-02 23:16:24 UTC,P,,,10/2/2015,,,FALSE,,,US,,,,Public - Appeler à l'avance,,public,CALL,,RENTAL_CAR_RETURN,,,,,,,,,ACME QUICK_CONNECT,,,,,,,,FALSE,,,,,,,,HD,,
LPG,U-Haul,8640 Kendrick Rd,,Jonesboro,GA,30238,,770-477-8037,E,,Public - Call ahead,"7am-7pm M-Th and Sat, 7am-8pm F, 9am-5pm Sun",A Cash D M V,,,,,,,,,,200-8,33.518888,-84.379206,5/12/2025,70186,2026-02-02 23:16:24 UTC,P,,,10/2/2015,,,FALSE,,,US,,,,Public - Appeler à l'avance,,public,CALL,,RENTAL_CAR_RETURN,,,,,,,,,ACME QUICK_CONNECT,,,,,,,,FALSE,,,,,,,,HD,,
LPG,U-Haul,2085 Cobb Pkwy,,Kennesaw,GA,30152,,770-792-8555,E,,Public - Call ahead,"7am-7pm M-Th and Sat, 7am-8pm F, 9am-5pm Sun",A Cash D M V,,,,,,,,,,200-9,34.002743,-84.601783,5/12/2025,70187,2026-02-02 23:16:24 UTC,P,,,10/2/2015,,,FALSE,,,US,,,,Public - Appeler à l'avance,,public,CALL,,RENTAL_CAR_RETURN,,,,,,,,,ACME QUICK_CONNECT,,,,,,,,FALSE,,,,,,,,HD,,
LPG,U-Haul,770 Gray Hwy,,Macon,GA,31211,,478-743-6756,E,,Public - Call ahead,"7am-7pm M-Th and Sat, 7am-8pm F, 9am-5pm Sun",A Cash D M V,,,,,,,,,,200-9,32.850625,-83.622268,5/12/2025,70188,2026-02-02 23:16:24 UTC,P,,,10/2/2015,,,FALSE,,,US,,,,Public - Appeler à l'avance,,public,CALL,,RENTAL_CAR_RETURN,,,,,,,,,ACME QUICK_CONNECT,,,,,,,,FALSE,,,,,,,,HD,,
LPG,U-Haul,543 Cobb Pkwy S,,Marietta,GA,30060,,770-428-3727,E,,Public - Call ahead,"7am-7pm M-Th and Sat, 7am-8pm F, 9am-5pm Sun",A Cash D M V,,,,,,,,,,200-9,33.939454,-84.513804,5/12/2025,70189,2026-02-02 23:16:24 UTC,P,,,10/2/2015,,,FALSE,,,US,,,,Public - Appeler à l'avance,,public,CALL,,RENTAL_CAR_RETURN,,,,,,,,,ACME QUICK_CONNECT,,,,,,,,FALSE,,,,,,,,HD,,
LPG,U-Haul,2447 Shorter Ave,,Rome,GA,30161,,706-232-9778,E,,Public - Call ahead,"7am-7pm M-Th and Sat, 7am-8pm F, 9am-5pm Sun",A Cash D M V,,,,,,,,,,200-9,34.271476,-85.2372,5/12/2025,70190,2026-02-02 23:16:24 UTC,P,,,10/2/2015,,,FALSE,,,US,,,,Public - Appeler à l'avance,,public,CALL,,RENTAL_CAR_RETURN,,,,,,,,,ACME QUICK_CONNECT,,,,,,,,FALSE,,,,,,,,HD,,
LPG,U-Haul,8810 Abercorn St,,Savannah,GA,31406,,912-927-6550,E,,Public - Call ahead,"7am-7pm M-Th and Sat, 7am-8pm F, 9am-5pm Sun",A Cash D M V,,,,,,,,,,200-9,31.997011,-81.126537,5/12/2025,70191,2026-02-02 23:16:24 UTC,P,,,10/2/2015,,,FALSE,,,US,,,,Public - Appeler à l'avance,,public,CALL,,RENTAL_CAR_RETURN,,,,,,,,,ACME QUICK_CONNECT,,,,,,,,FALSE,,,,,,,,HD,,
LPG,U-Haul,3802 Ogeechee Rd,,Savannah,GA,31405,,912-233-9912,E,,Public - Call ahead,"7am-7pm M-Th and Sat, 7am-8pm F, 9am-5pm Sun",A Cash D M V,,,,,,,,,,200-9,32.054239,-81.148733,5/12/2025,70192,2026-02-02 23:16:24 UTC,P,,,10/2/2015,,,FALSE,,,US,,,,Public - Appeler à l'avance,,public,CALL,,RENTAL_CAR_RETURN,,,,,,,,,ACME QUICK_CONNECT,,,,,,,,FALSE,,,,,,,,HD,,
LPG,U-Haul,2416 S Cobb Dr,,Smyrna,GA,30080,,770-432-5249,E,,Public - Call ahead,"7am-7pm M-Th and Sat, 7am-8pm F, 9am-5pm Sun",A Cash D M V,,,,,,,,,,200-9,33.893786,-84.539218,5/12/2025,70193,2026-02-02 23:16:24 UTC,P,,,10/2/2015,,,FALSE,,,US,,,,Public - Appeler à l'avance,,public,CALL,,RENTAL_CAR_RETURN,,,,,,,,,ACME QUICK_CONNECT,,,,,,,,FALSE,,,,,,,,HD,,
LPG,U-Haul,2040 Scenic Hwy N,,Snellville,GA,30078,,770-736-4992,E,,Public - Call ahead,"7am-7pm M-Th and Sat, 7am-8pm F, 9am-5pm Sun",A Cash D M V,,,,,,,,,,200-9,33.867989,-84.015089,5/12/2025,70194,2026-02-02 23:16:24 UTC,P,,,10/2/2015,,,FALSE,,,US,,,,Public - Appeler à l'avance,,public,CALL,,RENTAL_CAR_RETURN,,,,,,,,,ACME QUICK_CONNECT,,,,,,,,FALSE,,,,,,,,HD,,
LPG,U-Haul,11300 Highway 92,,Woodstock,GA,30188,,678-494-1551,E,,Public - Call ahead,"7am-7pm M-Th and Sat, 7am-8pm F, 9am-5pm Sun",A Cash D M V,,,,,,,,,,200-9,34.085288,-84.500605,5/12/2025,70196,2026-02-02 23:16:24 UTC,P,,,10/2/2015,,,FALSE,,,US,,,,Public - Appeler à l'avance,,public,CALL,,RENTAL_CAR_RETURN,,,,,,,,,ACME QUICK_CONNECT,,,,,,,,FALSE,,,,,,,,HD,,
ELEC,Nissan of Newnan,783 Bullsboro Dr,,Newnan,GA,30263,,770-254-3800,E,,Public - Call ahead,Dealership business hours,,,,,,1,1,,Non-Networked,,GPS,33.396072,-84.751945,1/13/2026,70444,2026-02-02 23:16:24 UTC,P,,,8/19/2014,,,,,CHADEMO J1772 J1772COMBO,US,,,,Public - Appeler à l'avance,,public,CALL,,CAR_DEALER,,,,,,,Free,,,,,,,,,,FALSE,,,,,,,,LD,FALSE,
ELEC,GWCC GWCC MB NGW 8,Mangum St SW,,Atlanta,GA,30303,,888-758-4389,E,,Public,24 hours daily,,,,,,2,,,ChargePoint Network,https://www.chargepoint.com,GPS,33.755638,-84.398674,3/2/2026,70512,2026-03-02 01:17:14 UTC,,,,10/15/2015,,,,,J1772,US,,,,Public,,public,,,,,,,,,,,,,,,,,,,,FALSE,,,,,,,,,FALSE,
E85,Jonesboro Food Mart - Mobil,4209 Jonesboro Rd,,Forest Park,GA,30297,,470-891-8066,E,,Public,6am-10:30pm daily,A Cash D M V Voyager Wright_Exp,,,,,,,,,,200-9,33.639609,-84.361738,7/3/2025,70613,2026-02-02 23:16:24 UTC,P,,,10/22/2015,,,,FALSE,,US,,,,Public,,public,,,CONVENIENCE_STORE,,,,,,,,,,,,,,,,,FALSE,,,,,,,,LD,,
E85,RaceTrac #2329,6875 Jimmy Carter Blvd,,Norcross,GA,30071,,770-248-0083,E,,Public,24 hours daily,A Cash D M V Voyager Wright_Exp,,,,,,,,,,200-9,33.942355,-84.237605,9/12/2025,70620,2026-02-02 23:16:24 UTC,P,,,10/15/2015,,,,FALSE,,US,,,,Public,,public,,,CONVENIENCE_STORE,,,,,,,,,,,,,,,,,FALSE,,,,,,,,MD,,
ELEC,HIGHWOODS 2800 NGW1,2800 Century Center Dr,Near loading dock,Atlanta,GA,30345,,888-758-4389,E,,Public,24 hours daily,,,,,,2,,,ChargePoint Network,https://www.chargepoint.com,GPS,33.848618,-84.304817,3/2/2026,70705,2026-03-02 01:17:24 UTC,,,,10/28/2015,,,,,J1772,US,,,,Public,,public,,,,,,,,,,,,,,,,,,,,FALSE,,,,,,,,,FALSE,
CNG,Liberty Utilities Service Center,2300 Victory Dr,,Columbus,GA,31901,,,E,,Private,,,,Q,3600,,,,,,,200-9,32.440098,-84.966781,10/11/2024,70850,2025-11-06 16:02:19 UTC,T,,,10/5/2015,,HD,,,,US,,,,Privé,,private,,,UTILITY,2,,,,,,,,,,,Q,3600,HD,,,,,,,,,FALSE,,HD,,
ELEC,HIGHWOODS 2400 NGW,2400 Century Center Dr,,Atlanta,GA,30345,,888-758-4389,E,,Public,24 hours daily,,,,,,2,,,ChargePoint Network,https://www.chargepoint.com,GPS,33.846544,-84.3063,3/2/2026,71016,2026-03-02 01:17:24 UTC,,,,11/7/2015,,,,,J1772,US,,,,Public,,public,,,,,,,,,,,,,,,,,,,,FALSE,,,,,,,,,FALSE,
ELEC,THREE ALLIANCE 3 ALLIANCE EV1,3560 Lenox Rd NE,,Atlanta,GA,30326,,888-758-4389,E,,Public,24 hours daily,,,,,,2,,,ChargePoint Network,https://www.chargepoint.com,GPS,33.85114,-84.366722,3/2/2026,71107,2026-03-02 01:21:33 UTC,,,,11/14/2015,,,,,J1772,US,,,,Public,,public,,,,,,,,,,,,,,,,,,,,FALSE,,,,,,,,,FALSE,
LPG,AmeriGas,8951 US Highway 301 S,,Statesboro,GA,30458,,912-681-6076,E,,Private - Fleet customers only,Contact AmeriGas to set up fueling arrangements,,,,,,,,,,,GPS,32.37664589138652,-81.84231189,7/3/2025,71985,2026-02-02 23:16:24 UTC,P,,,12/22/2015,,,,,,US,,,,Privé - Réservé aux clients de parcs,,private,FLEET,,FUEL_RESELLER,,,,,,,,,,,,,,,,,,,,,,,,,HD,,
ELEC,Yonah Mountain Vineyards,1717 Highway 225,,Cleveland,GA,30528,,706-878-5522,E,,Public,24 hours daily; for guest use only; see front desk for access,,,,,,4,,,Non-Networked,,GPS,34.615088,-83.703135,2/12/2024,72082,2025-02-12 00:16:32 UTC,P,,,11/1/2015,,,,,J1772,US,,,,Public,,public,,,BREWERY_DISTILLERY_WINERY,,,,,,,Free,,,,,,,,,,TRUE,,,,,,,,LD,FALSE,
E85,RaceTrac #2340,5901 Highway 53,,Braselton,GA,30517,,706-658-4731,E,,Public,24 hours daily,A Cash D M V Voyager Wright_Exp,,,,,,,,,,GPS,34.12044,-83.763007,9/12/2025,72324,2026-02-02 23:16:24 UTC,P,,,1/1/2016,,,,FALSE,,US,,,,Public,,public,,,CONVENIENCE_STORE,,,,,,,,,,,,,,,,,FALSE,,,,,,,,MD,,
E85,RaceTrac #2374,665 Highway 53 E,,Calhoun,GA,30701,,706-629-4897,E,,Public,24 hours daily,A Cash D M V Voyager Wright_Exp,,,,,,,,,,200-8,34.473003,-84.923414,10/13/2025,72325,2026-02-02 23:16:24 UTC,P,,,1/1/2016,,,,FALSE,,US,,,,Public,,public,,,CONVENIENCE_STORE,,,,,,,,,,,,,,,,,FALSE,,,,,,,,MD,,
ELEC,Savannah Harley-Davidson,1 Fort Argyle Rd,,Savannah,GA,31324,,912-925-0005,E,,Public - Call ahead,24 hours daily,,,,,,1,,,Non-Networked,,200-9,32.003481,-81.286643,8/15/2024,72523,2025-02-12 00:16:32 UTC,P,,,10/30/2015,,,,,J1772,US,,,,Public - Appeler à l'avance,,public,CALL,,SHOPPING_CENTER,,,,,,,Free,,,,,,,,,,FALSE,,,,,,,,LD,FALSE,
ELEC,SAT PLACE 300 BANYAN 2 NGW,3237 Satellite Blvd,,Duluth,GA,30096,,888-758-4389,E,,Public,24 hours daily,,,,,,2,,,ChargePoint Network,https://www.chargepoint.com,GPS,33.96366,-84.120419,3/2/2026,72592,2026-03-02 01:19:00 UTC,,,,1/19/2016,,,,,J1772,US,,,,Public,,public,,,,,,,,,,,,,,,,,,,,FALSE,,,,,,,,,FALSE,
CNG,City of Augusta,711 Scott Nixon Memorial Dr,,Augusta,GA,30907,,706-592-3224,E,,Public - Credit card at all times,24 hours daily,D M V Voyager Wright_Exp,,Q,3600,,,,,,,200-9,33.497956,-82.089662,1/13/2025,72596,2025-11-06 18:09:36 UTC,LG,,,11/6/2017,,HD,,,,US,,,,Public - Carte de crédit en tout temps,,public,CREDIT_CARD_ALWAYS,,MUNI_GOV,2,,1500,56000,,,,,,,,Q,3600,HD,,,FALSE,,,,,,,,HD,,
ELEC,GE Campus,4200 Wildwood Pkwy,,Atlanta,GA,30339,,678-844-6000,E,,Public,24 hours daily,,,,,,2,,,Non-Networked,,GPS,33.913436,-84.456553,1/9/2024,72695,2024-01-31 22:07:01 UTC,P,,,1/25/2016,,,,,J1772,US,,,,Public,,public,,,OFFICE_BLDG,,,,,,,Free,,,,,,,,,,FALSE,,,,,,,,LD,TRUE,
CNG,Austell Gas,5997 Hutcheson Dr,,Austell,GA,30106,,,E,,Private,,,,B,3600,,,,,,,200-8,33.81443,-84.641241,5/12/2025,73154,2026-02-02 23:16:24 UTC,T,,,12/15/2014,,LD,,,,US,,,,Privé,,private,,,STANDALONE_STATION,1,,,,,,,,,,,B,3600,LD,,,,,,,,,FALSE,,LD,,
CNG,Waste Management - Atlanta South,3001 S Pioneer Dr SE,,Smyrna,GA,30082,,,E,,Private,,,,B,3600,,,,,,,200-9,33.822847,-84.496031,1/13/2026,73155,2026-02-02 23:16:24 UTC,P,,,5/15/2016,,HD,,,,US,,,,Privé,,private,,,FLEET_GARAGE,1,NONE,,,,,,,,,,B,3600,HD,,,,,,,,,TRUE,,HD,,
ELEC,KENNESAW HAWTHORNE EV1,4045 George Busbee Pkwy NW,,Kennesaw,GA,30144,,888-758-4389,E,,Public,24 hours daily,,,,,,2,,,ChargePoint Network,https://www.chargepoint.com,GPS,34.050753,-84.586163,3/2/2026,73609,2026-03-02 01:18:34 UTC,,,,2/16/2016,,,,,J1772,US,,,,Public,,public,,,,,,,,,,,,,,,,,,,,FALSE,,,,,,,,,FALSE,
CNG,Atlanta Gas Light - Savannah Service Center,1668 Chatham Pkwy,,Savannah,GA,31405,,,E,,Private,,,,Q,3600,,,,,,,200-9,32.054252,-81.16585,1/13/2025,73716,2025-11-06 18:09:36 UTC,T,,,2/26/2016,,MD,,,,US,,,,Privé,,private,,,UTILITY,1,,,,,,,,,,,Q,3600,MD,,,,,,,,,FALSE,,MD,,
CNG,Atlanta Gas Light - Clayton County Service Center,508 Highway 138,,Riverdale,GA,30274,,,E,,Private,,,,Q,3600,,,,,,,200-8,33.546944,-84.408559,1/13/2025,73717,2025-11-06 18:09:36 UTC,T,,,2/15/1995,,HD,,,,US,,,,Privé,,private,,,UTILITY,2,,,,,,,,,,,Q,3600,HD,,,,,,,,,FALSE,,HD,,
ELEC,FAYETTE COUNTY STATION #2,140  Stonewall Ave W,In the Parking Lot off of Stonewall,Fayetteville,GA,30214,,888-758-4389,E,,Public,24 hours daily,,,,,,2,,,ChargePoint Network,https://www.chargepoint.com,GPS,33.447616,-84.455718,3/2/2026,74219,2026-03-02 01:19:52 UTC,,,,3/16/2016,,,,,J1772,US,,,,Public,,public,,,,,,,,,,,,,,,,,,,,FALSE,,,,,,,,,FALSE,
LPG,United Parcel Service,2254 Centennial Dr,,Gainesville,GA,30504,,,E,,Private,,,,,,,,,,,,200-9,34.262887,-83.865654,6/6/2025,74502,2026-02-02 23:16:24 UTC,P,,,3/30/2016,,,,,,US,,,,Privé,,private,,,FLEET_GARAGE,,,,,,,,,,,,,,,,,,,,,,,,,HD,,
CNG,United Parcel Service,1707 Eastman Dr,,Tifton,GA,31793,,,E,,Private,,,,Q,3600,,,,,,,200-9,31.44363,-83.538235,6/6/2025,74880,2026-02-02 23:16:24 UTC,P,,,7/1/2016,,HD,,,,US,,,,Privé,,private,,,STANDALONE_STATION,1,NONE,,,,,,,,,,Q,3600,HD,,,,,,,,,TRUE,,HD,,
LPG,Pacific Pride,2312 Monroe Dr,,Gainesville,GA,30501,,770-532-8661,E,,Public - Call ahead,24 hours daily with card key; contact Jay Fulenwider (770-532-8661 x24) for access,Comdata EFS FleetOne FuelMan PacificPride Proprietor TCH Tchek Voyager Wright_Exp,,,,,,,,,,200-9,34.267825,-83.81522,9/12/2025,75426,2026-02-02 23:16:24 UTC,P,,,4/27/2016,,,FALSE,,,US,,,,Public - Appeler à l'avance,,public,CALL,,GAS_STATION,,,,,,,,,QUICK_CONNECT,,,,,,,,FALSE,,,,,,,,HD,,
ELEC,754 MIDTOWN GW,759 West Peachtree St NW,The station is located in a parking garage,Atlanta,GA,30308,,888-758-4389,E,,Public,24 hours daily,,,,,,2,,,ChargePoint Network,https://www.chargepoint.com,GPS,33.775604,-84.386929,3/2/2026,75456,2026-03-02 01:17:33 UTC,,,,4/29/2016,,,,,J1772,US,,,,Public,,public,,,,,,,,,,,,,,,,,,,,FALSE,,,,,,,,,FALSE,
LPG,Alliance AutoGas - Palmetto Propane,133 Davis Rd,,Martinez,GA,30907,,800-233-1882,E,,Public - Card key after hours,9am-5pm M-F (full service); 24 hour access with Alliance AutoGas card (self-service),A ALLIANCE Cash CFN Checks D M V,,,,,,,,,,200-9,33.506832,-82.083706,1/13/2025,75622,2025-06-11 19:51:38 UTC,P,,,11/10/2016,,,TRUE,,,US,,,,Public - Carte-clé après les heures d'ouverture,,public,KEY_AFTER_HOURS,,FUEL_RESELLER,,,,,,,,,ACME QUICK_CONNECT,,,,,,,,FALSE,,,,,,,,HD,,
ELEC,OVERLOOK II SURFACE PARK 1,2839 Paces Ferry Rd SE,"When you pull in, do not pull into the lower parking deck. Stations are on far wall in the corner.",Atlanta,GA,30339,,888-758-4389,E,,Public,24 hours daily,,,,,,2,,,ChargePoint Network,https://www.chargepoint.com,GPS,33.866937,-84.47224,3/2/2026,75697,2026-03-02 01:20:30 UTC,,,,5/21/2016,,,,,J1772,US,,,,Public,,public,,,,,,,,,,,,,,,,,,,,FALSE,,,,,,,,,FALSE,
CNG,Atlanta Gas Light - Cumming Service Center,1480 Oak Industrial Ln,,Cumming,GA,30041,,,E,,Private,,,,Q,3600,,,,,,,200-9,34.158972,-84.159288,1/13/2025,76192,2025-11-06 18:09:36 UTC,T,,,6/7/2016,,MD,,,,US,,,,Privé,,private,,,UTILITY,1,,,,,,,,,,,Q,3600,MD,,,,,,,,,FALSE,,MD,,
ELEC,GEORGIA POWER BEST WESTERN DC,301 N Central Ave,Best Western,Hapeville,GA,30354,,888-758-4389,E,,Public,24 hours daily,,,,,,,1,,ChargePoint Network,https://www.chargepoint.com,GPS,33.653984,-84.397653,3/2/2026,76862,2026-03-02 01:54:56 UTC,,,,7/2/2016,,,,,CHADEMO J1772COMBO,US,,,,Public,,public,,,,,,,,,,,,,,,,,,,,FALSE,,,,,,,,,FALSE,
ELEC,BROOKLEIGH FLAT PARKING GARAGE,3450 Blair Cir NE,,Atlanta,GA,30319,,888-758-4389,E,,Public,24 hours daily,,,,,,2,,,ChargePoint Network,https://www.chargepoint.com,GPS,33.89213,-84.323977,3/2/2026,77145,2026-03-02 01:21:34 UTC,,,,7/27/2016,,,,,J1772,US,,,,Public,,public,,,,,,,,,,,,,,,,,,,,FALSE,,,,,,,,,FALSE,
E85,RaceTrac #2388,443 Olde Rope Mill Park Rd,,Woodstock,GA,30188,,770-591-8362,E,,Public,24 hours daily,A Cash D M V Voyager Wright_Exp,,,,,,,,,,GPS,34.12362582141277,-84.52387523,9/12/2025,77208,2026-02-02 23:16:24 UTC,P,,,7/15/2016,,,,FALSE,,US,,,,Public,,public,,,CONVENIENCE_STORE,,,,,,,,,,,,,,,,,FALSE,,,,,,,,MD,,
ELEC,GEORGIA POWER GPC CORP HQ2 L2,241 Ralph McGill Blvd NE,,Atlanta,GA,30308,,888-758-4389,E,,Public,24 hours daily,,,,,,2,,,ChargePoint Network,https://www.chargepoint.com,GPS,33.763981,-84.380076,3/2/2026,78489,2026-03-02 01:57:34 UTC,,,,9/15/2016,,,,,J1772,US,,,,Public,,public,,,,,,,,,,,,,,,,,,,,FALSE,,,,,,,,,FALSE,
ELEC,GSU HOUSING EVS UNIV COMMONS 2,141 Piedmont Ave NE,Located in parking deck P2,Atlanta,GA,30303,,888-758-4389,E,,Public,24 hours daily,,,,,,1,,,ChargePoint Network,https://www.chargepoint.com,GPS,33.757551,-84.381217,3/2/2026,78599,2026-03-02 01:21:59 UTC,,,,9/23/2016,,,,,J1772,US,,,,Public,,public,,,,,,,,,,,,,,,,,,,,FALSE,,,,,,,,,FALSE,
ELEC,GSU HOUSING EVS PIEDMONT NORTH,175 Piedmont Ave.,,Atlanta,GA,30303,,888-758-4389,E,,Public,24 hours daily,,,,,,2,,,ChargePoint Network,https://www.chargepoint.com,GPS,33.759038,-84.380579,3/2/2026,78606,2026-03-02 01:18:09 UTC,,,,9/23/2016,,,,,J1772,US,,,,Public,,public,,,,,,,,,,,,,,,,,,,,FALSE,,,,,,,,,FALSE,
ELEC,GSU HOUSING EVS UNIV COMMONS 1,Piedmont Ave NE,Located in parking deck P2,Atlanta,GA,30303,,888-758-4389,E,,Public,24 hours daily,,,,,,2,,,ChargePoint Network,https://www.chargepoint.com,GPS,33.757569,-84.381199,3/2/2026,78607,2026-03-02 01:18:08 UTC,,,,9/23/2016,,,,,J1772,US,,,,Public,,public,,,,,,,,,,,,,,,,,,,,FALSE,,,,,,,,,FALSE,
LPG,Conger LP Gas,2840 US Highway 82 W,,Sylvester,GA,31791,,229-776-7336,E,,Public,8am-5pm M-F,A Cash Checks D M V,,,,,,,,,,GPS,31.54409964074164,-83.88140301,8/12/2025,78772,2026-02-02 23:16:24 UTC,P,,,9/15/2016,,,TRUE,,,US,,,,Public,,public,,,FUEL_RESELLER,,,,,,,,,ACME QUICK_CONNECT,,,,,,,,FALSE,,,,,,,,HD,,
LPG,Conger LP Gas,604-B N Broadfoot Blvd,,Vidalia,GA,30474,,912-537-8722,E,,Public,8am-5pm M-F,A Cash Checks D M V,,,,,,,,,,200-9,32.218033,-82.395955,8/12/2025,78864,2026-02-02 23:16:24 UTC,P,,,9/15/2016,,,TRUE,,,US,,,,Public,,public,,,FUEL_RESELLER,,,,,,,,,ACME QUICK_CONNECT,,,,,,,,FALSE,,,,,,,,HD,,
ELEC,GEORGIA POWER STAYBRIDGE DC,3420 Norman Berry Dr,,Hapeville,GA,30354,,888-758-4389,E,,Public,24 hours daily,,,,,,,1,,ChargePoint Network,https://www.chargepoint.com,GPS,33.662898,-84.428118,3/2/2026,78878,2026-03-02 01:55:11 UTC,,,,10/7/2016,,,,,CHADEMO J1772COMBO,US,,,,Public,,public,,,,,,,,,,,,,,,,,,,,FALSE,,,,,,,,,FALSE,
LPG,TruFlame Gas Co,209 S Liberty St,,Waynesboro,GA,30830,,706-554-0346  800-387-1362,E,,Public,8am-5pm M-F,Cash Checks D M V,,,,,,,,,,200-9,33.078871,-82.006068,1/13/2025,78885,2025-02-12 00:16:32 UTC,P,,,8/1/2015,,,TRUE,,,US,,,,Public,,public,,,FUEL_RESELLER,,,,,,,,,ACME,,,,,,,,FALSE,,,,,,,,HD,,
LPG,TruFlame Gas Co,22801 Highway 80 E,,Statesboro,GA,30461,,912-764-7383  800-387-1362,E,,Public,8am-5pm M-F,Cash Checks D M V,,,,,,,,,,GPS,32.425416,-81.73599,1/13/2025,78886,2025-02-12 00:16:32 UTC,P,,,8/1/2014,,,TRUE,,,US,,,,Public,,public,,,FUEL_RESELLER,,,,,,,,,ACME,,,,,,,,FALSE,,,,,,,,HD,,
ELEC,GEORGIA POWER CLAYTON L2,19 Duncan St,Clayton Downtown Development Authority parking lot,Clayton,GA,30525,,888-758-4389,E,,Public,24 hours daily,,,,,,2,,,ChargePoint Network,https://www.chargepoint.com,GPS,34.87995,-83.401835,3/2/2026,78973,2026-03-02 01:17:47 UTC,,,,10/13/2016,,,,,J1772,US,,,,Public,,public,,,,,,,,,,,,,,,,,,,,FALSE,,,,,,,,,FALSE,
ELEC,DELTA AIR LINES GO CHARGER 13,Hartsfield Dr SW,,Atlanta,GA,30354,,888-758-4389,E,,Public,24 hours daily,,,,,,2,,,ChargePoint Network,https://www.chargepoint.com,GPS,33.653832,-84.423689,3/2/2026,78998,2026-03-02 01:37:10 UTC,,,,10/14/2016,,,,,J1772,US,,,,Public,,public,,,,,,,,,,,,,,,,,,,,FALSE,,,,,,,,,FALSE,
LPG,Blossman Gas Inc,11605 S Main St,,Trenton,GA,30752,,706-657-5949,E,,Public,8am-5pm M-F (full service); 24 hour access with Alliance AutoGas card (self-service),Cash Checks D M V,,,,,,,,,,200-9,34.86322,-85.516969,10/11/2024,79112,2025-06-11 19:53:17 UTC,P,,,5/1/2014,,,TRUE,,,US,,,,Public,,public,,,FUEL_RESELLER,,,,,,,,,ACME QUICK_CONNECT,,,,,,,,FALSE,,,,,,,,HD,,
LPG,Alliance AutoGas - Groome Transportation,1320 Milledge St,,East Point,GA,30344,,,E,,Private - Fleet customers only,Call 228-215-0544 for fleet fueling information,ALLIANCE,,,,,,,,,,200-9,33.690792,-84.432169,1/13/2025,79130,2025-06-11 19:51:38 UTC,P,,,9/1/2015,,,,,,US,,,,Privé - Réservé aux clients de parcs,,private,FLEET,,FUEL_RESELLER,,,,,,,,,,,,,,,,,,,,,,,,,MD,,
ELEC,GEORGIA POWER REM ELLIJAY L2,696 1st Ave,Near Waffle House,East Ellijay,GA,30539,,888-758-4389,E,,Public,24 hours daily,,,,,,2,,,ChargePoint Network,https://www.chargepoint.com,GPS,34.67794,-84.477315,3/2/2026,79364,2026-03-02 01:17:44 UTC,,,,11/2/2016,,,,,J1772,US,,,,Public,,public,,,,,,,,,,,,,,,,,,,,FALSE,,,,,,,,,FALSE,
ELEC,GEORGIA POWER LAVISTA L2,3959 Lavista Rd,,Tucker,GA,30084,,888-758-4389,E,,Public,24 hours daily,,,,,,2,,,ChargePoint Network,https://www.chargepoint.com,GPS,33.844021,-84.256647,3/2/2026,79447,2026-03-02 01:17:46 UTC,,,,11/8/2016,,,,,J1772,US,,,,Public,,public,,,,,,,,,,,,,,,,,,,,FALSE,,,,,,,,,FALSE,
ELEC,University of North Georgia - Gainesville Campus,3820 Mundy Mill Rd,,Oakwood,GA,30566,,404-736-9173,E,,Public,24 hours daily,,,,,,2,,,Blink Network,https://blinkcharging.com,GPS,34.23783972223067,-83.86689129,1/13/2025,79454,2025-02-12 00:16:32 UTC,P,,,6/1/2015,,,,,J1772,US,,,,Public,,public,,,COLLEGE_CAMPUS,,,,,,,Free,,,,,,,,,,FALSE,,,,,,,,LD,FALSE,
E85,Speedway #8495,910 McFarland Pkwy,,Alpharetta,GA,30004,,1-800-643-1948,E,,Public,24 hours daily,A Cash D M V Voyager Wright_Exp,,,,,,,,,,200-8,34.123935,-84.224042,9/12/2024,80159,2025-12-17 20:22:02 UTC,P,,,12/15/2016,,,,FALSE,,US,,,,Public,,public,,,CONVENIENCE_STORE,,,,,,,,,,,,,,,,,FALSE,,,,,,,,,,
ELEC,Mike Murphy Kia,6150 Altama Ave,,Brunswick,GA,31525,,912-342-4190,T,8/5/2026,TEMPORARILY UNAVAILABLE (Public - Call ahead),Dealership business hours,,,,,,2,,,Non-Networked,,200-9,31.224991,-81.47703,9/12/2025,80760,2026-02-02 23:16:24 UTC,P,,,8/30/2019,,,,,J1772,US,,,,TEMPORAIREMENT SUSPENDU (Public - Appeler à l'avance),,public,CALL,,CAR_DEALER,,,,,,,Free,,,,,,,,,,FALSE,,,,,,,,LD,FALSE,
ELEC,Mall of Georgia Ford,4525 Nelson Brogdon Blvd,,Buford,GA,30518,,,E,,Private,For service center use only,,,,,,1,,,Non-Networked,,200-9,34.099866,-84.016663,12/10/2024,80762,2025-02-12 00:16:32 UTC,P,,,11/1/2016,,,,,J1772,US,,,,Privé,,private,,,CAR_DEALER,,,,,,,,,,,,,,,,,,,,,,,,,MD,FALSE,
ELEC,Kritters Country Club,7377 W Strickland St,,Douglasville,GA,30134,,770-489-7500,E,,Public,24 hours daily,,,,,,1,,,Non-Networked,,200-9,33.74498,-84.768817,12/10/2024,80764,2025-02-12 00:16:32 UTC,P,,,6/1/2015,,,,,J1772,US,,,,Public,,public,,,STANDALONE_STATION,,,,,,,Free,,,,,,,,,,FALSE,,,,,,,,,FALSE,
ELEC,Elbert County Government Complex,45 Forest Ave,,Elberton,GA,30635,,706-283-2000,E,,Public,24 hours daily,,,,,,1,,,Non-Networked,,200-9,34.111009,-82.870808,12/10/2024,80765,2025-02-12 00:16:32 UTC,LG,,,10/1/2015,,,,,J1772,US,,,,Public,,public,,,MUNI_GOV,,,,,,,Free,,,,,,,,,,FALSE,,,,,,,,LD,TRUE,
ELEC,Dyer Kia,4580 Washington Rd,,Evans,GA,30809,,706-305-4000,E,,Public - Call ahead,Dealership business hours,,,,,,1,,,Non-Networked,,200-9,33.549342,-82.153002,12/12/2025,80766,2026-02-02 23:16:24 UTC,P,,,11/1/2016,,,,,J1772,US,,,,Public - Appeler à l'avance,,public,CALL,,CAR_DEALER,,,,,,,Free,,,,,,,,,,FALSE,,,,,,,,LD,FALSE,
ELEC,Asiano Restaurant,1382 US-76,,Hiawassee,GA,30546,,706-896-0508,E,,Public - Credit card at all times,24 hours daily,A ACCOUNT_BALANCE D Debit M,,,,,1,,,Non-Networked,,GPS,34.96338332,-83.78223046,11/13/2025,80768,2026-02-02 23:16:24 UTC,P,,,1/7/2017,,,,,TESLA,US,,,,Public - Carte de crédit en tout temps,,public,CREDIT_CARD_ALWAYS,,RESTAURANT,,,,,,,,,,,,,,,,,FALSE,,,,,,,,LD,FALSE,
ELEC,John Thornton Chevrolet,1971 Thornton Rd,,Lithia Springs,GA,30122,,770-941-8550,E,,Public - Call ahead,Dealership business hours; for dealership use only,,,,,,1,,,Non-Networked,,200-9,33.784,-84.610397,11/13/2025,80772,2026-02-02 23:16:24 UTC,P,,,11/1/2016,,,,,J1772,US,,,,Public - Appeler à l'avance,,public,CALL,,CAR_DEALER,,,,,,,Free,,,,,,,,,,TRUE,,,,,,,,LD,FALSE,
ELEC,O'Kelly Memorial Library,363 Conyers Rd,,Loganville,GA,30052,,770-466-2895,E,,Public,24 hours daily,,,,,,1,,,Non-Networked,,200-9,33.838123,-83.903053,12/10/2024,80774,2025-02-12 00:16:32 UTC,LG,,,12/15/2015,,,,,J1772,US,,,,Public,,public,,,LIBRARY,,,,,,,Free,,,,,,,,,,FALSE,,,,,,,,LD,FALSE,
ELEC,Navicent Health - Green Deck,777 Hemlock St,Located on first level,Macon,GA,31201,,478-633-1000,E,,Public,Garage business hours,,,,,,1,,,Non-Networked,,200-9,32.833526,-83.636078,12/12/2025,80775,2026-02-02 23:16:24 UTC,P,,,11/1/2016,,,,,J1772,US,,,,Public,,public,,,HOSPITAL,,,,,,,Free; pay garage,,,,,,,,,,FALSE,,,,,,,,LD,FALSE,
ELEC,McDonough Nissan,1775 Avalon Pkwy,,McDonough,GA,30253,,888-532-3789,E,,Public,24 hours daily,,,,,,,1,,IN_CHARGE,https://inchargeus.com,GPS,33.42281281,-84.17818022,1/13/2026,80779,2026-02-02 23:16:24 UTC,P,,,7/24/2015,,,,,CHADEMO J1772COMBO,US,,,,Public,,public,,,CAR_DEALER,,,,,,,Free,,,,,,,,,,TRUE,,,,,,,,LD,FALSE,
ELEC,Heritage Mitsubishi,7134 Jonesboro Rd,,Morrow,GA,30260,,,E,,Public,Dealership business hours; for client use only,,,,,,1,,,Non-Networked,,200-9,33.561906,-84.344267,9/12/2025,80780,2026-02-02 23:16:24 UTC,P,,,11/1/2016,,,,,J1772,US,,,,Public,,public,,,CAR_DEALER,,,,,,,Free,,,,,,,,,,TRUE,,,,,,,,LD,FALSE,
ELEC,SouthTowne Chevrolet,695 Bullsboro Dr,"One located in service, one located in sales",Newnan,GA,30265,,,E,,Private,Dealership business hours; for customer and staff use only; drivers must check in with station staff,,,,,,8,1,,Blink Network,https://blinkcharging.com,200-9,33.39644,-84.755016,12/12/2025,80781,2026-02-02 23:16:24 UTC,P,,,11/1/2016,,,,,J1772 J1772COMBO,US,,,,Privé,,private,,,CAR_DEALER,,,,,,,Free,,,,,,,,,,,,,,,,,,LD,FALSE,
ELEC,City of Norcross - City Hall,65 Lawrenceville St,,Norcross,GA,30071,,770-448-2122,T,6/1/2024,TEMPORARILY UNAVAILABLE (Public),24 hours daily,,,,,,1,,,Non-Networked,,200-9,33.942436,-84.210831,1/9/2024,80782,2024-01-31 22:07:01 UTC,LG,,,3/1/2015,,,,,J1772,US,,,,TEMPORAIREMENT SUSPENDU (Public),,public,,,MUNI_GOV,,,,,,,Free,,,,,,,,,,FALSE,,,,,,,,,FALSE,
ELEC,Roswell Mitsubishi,11170 Alpharetta Hwy,,Roswell,GA,30076,,678-349-2900,E,,Public,24 hours daily; dealership use only,,,,,,1,,,Non-Networked,,200-9,34.052142,-84.335161,12/10/2024,80784,2025-02-12 00:16:32 UTC,P,,,11/2/2016,,,,,J1772,US,,,,Public,,public,,,CAR_DEALER,,,,,,,Free,,,,,,,,,,TRUE,,,,,,,,LD,FALSE,
ELEC,Rick Hendrick Chevrolet,3277 Satellite Blvd NW,,Duluth,GA,30096,,470-880-5412,E,,Public - Call ahead,Dealership business hours; for customer use only,,,,,,1,,,Non-Networked,,GPS,33.964498,-84.12267,12/12/2025,80791,2026-02-02 23:16:24 UTC,P,,,11/1/2016,,,,,J1772,US,,,,Public - Appeler à l'avance,,public,CALL,,CAR_DEALER,,,,,,,Free,,,,,,,,,,TRUE,,,,,,,,,FALSE,
ELEC,Boehringer Ingelheim,3239 Satellite Blvd,,Duluth,GA,30096,,,E,,Private,,,,,,,4,,,Non-Networked,,GPS,33.964724,-84.118944,12/10/2024,80794,2025-02-12 00:16:32 UTC,P,,,11/1/2016,,,,,J1772,US,,,,Privé,,private,,,OFFICE_BLDG,,,,,,,,,,,,,,,,,,,,,,,,,LD,TRUE,
ELEC,Gerald Jones Lincoln,4333 Washington Rd,,Evans,GA,30809,,706-854-9200,T,8/5/2026,TEMPORARILY UNAVAILABLE (Public - Call ahead),Dealership business hours,,,,,,1,,,Non-Networked,,200-9,33.540097,-82.130384,9/12/2025,80795,2026-02-02 23:16:24 UTC,P,,,11/1/2016,,,,,J1772,US,,,,TEMPORAIREMENT SUSPENDU (Public - Appeler à l'avance),,public,CALL,,CAR_DEALER,,,,,,,,,,,,,,,,,FALSE,,,,,,,,LD,FALSE,
ELEC,City of Newnan - City Hall,25 LaGrange St,,Newnan,GA,30263,,770-253-2682,E,,Public,For employee use only 8am-5pm; for public use after 5pm,,,,,,1,,,Non-Networked,,200-9,33.37307,-84.801024,12/12/2025,80797,2026-02-02 23:16:24 UTC,LG,,,11/1/2016,,,,,J1772,US,,,,Public,,public,,,MUNI_GOV,,,,,,,Free,,,,,,,,,,TRUE,,,,,,,,,TRUE,
ELEC,Columbus State University,4025 University Ave,Located in parking lot of Schuster Student Success Center,Columbus,GA,31907,,706-507-8222,E,,Public,24 hours daily; valid parking permit required,,,,,,3,,,Non-Networked,,GPS,32.503115,-84.938555,8/15/2024,80800,2025-02-12 00:16:32 UTC,P,,,11/1/2016,,,,,J1772,US,,,,Public,,public,,,COLLEGE_CAMPUS,,,,,,,Free,,,,,,,,,,TRUE,,,,,,,,LD,FALSE,
ELEC,State Farm,5755 Lawrenceville Hwy,,Tucker,GA,30084,,770-564-0994,E,,Public - Card key at all times,9am-5pm; ask for office key at the front desk,,,,,,2,,,Non-Networked,,200-9,33.877815,-84.168919,12/12/2025,80801,2026-02-02 23:16:24 UTC,P,,,11/1/2016,,,,,J1772,US,,,,Public - Carte-clé en tout temps,,public,KEY_ALWAYS,,OFFICE_BLDG,,,,,,,Free,,,,,,,,,,FALSE,,,,,,,,LD,TRUE,
ELEC,GEORGIA POWER GAINESVILLE L2,450 Jesse Jewell Pkwy,Across from pool,Gainesville,GA,30501,,888-758-4389,E,,Public,24 hours daily,,,,,,2,,,ChargePoint Network,https://www.chargepoint.com,GPS,34.295923,-83.829389,3/2/2026,80860,2026-03-02 01:17:44 UTC,,,,1/12/2017,,,,,J1772,US,,,,Public,,public,,,,,,,,,,,,,,,,,,,,FALSE,,,,,,,,,FALSE,
ELEC,GEORGIA POWER GLENWOOD DC,800 Glenwood Ave SE,,Atlanta,GA,30316,,888-758-4389,E,,Public,24 hours daily,,,,,,,1,,ChargePoint Network,https://www.chargepoint.com,GPS,33.74186,-84.3595,3/2/2026,80931,2026-03-02 01:55:50 UTC,,,,1/19/2017,,,,,CHADEMO J1772COMBO,US,,,,Public,,public,,,,,,,,,,,,,,,,,,,,FALSE,,,,,,,,,FALSE,
LPG,Evergreen Propane,149 Macon W Dr,,Macon,GA,31210,,478-476-4558,E,,Public,8am-5pm M-F,A Cash Checks D M V,,,,,,,,,,200-9,32.833795,-83.725311,9/12/2025,81565,2026-02-02 23:16:24 UTC,P,,,1/1/2012,,,TRUE,,,US,,,,Public,,public,,,FUEL_RESELLER,,,,,,,,,ACME QUICK_CONNECT,,,,,,,,FALSE,,,,,,,,HD,,
LPG,Evergreen Propane,331 S Houston Lake Rd,,Warner Robins,GA,31088,,478-953-0302,E,,Public,8am-5pm M-F,A Cash Checks D M V,,,,,,,,,,200-9,32.611889,-83.679657,9/12/2025,81566,2026-02-02 23:16:24 UTC,P,,,1/1/2013,,,TRUE,,,US,,,,Public,,public,,,FUEL_RESELLER,,,,,,,,,ACME,,,,,,,,FALSE,,,,,,,,HD,,
LPG,Evergreen Propane,1002 W Main St,,Forsyth,GA,31029,,478-994-2119,E,,Public,8am-5pm M-F,A Cash Checks CREDIT D Debit M V,,,,,,,,,,GPS,33.03087603510733,-83.96537641,9/12/2025,81567,2026-02-02 23:16:24 UTC,P,,,1/1/2012,,,FALSE,,,US,,,,Public,,public,,,FUEL_RESELLER,,,,,,,,,ACME,,,,,,,,FALSE,,,,,,,,HD,,
ELEC,THREE ALLIANCE 3 ALLIANCE EV2,Alliance Center Dr NE,3 Alliance Center,Atlanta,GA,30326,,888-758-4389,E,,Public,24 hours daily,,,,,,2,,,ChargePoint Network,https://www.chargepoint.com,GPS,33.851471,-84.366375,3/2/2026,81676,2026-03-02 01:22:31 UTC,,,,3/8/2017,,,,,J1772,US,,,,Public,,public,,,,,,,,,,,,,,,,,,,,FALSE,,,,,,,,,FALSE,
ELEC,THREE ALLIANCE 3 ALLIANCE EV4,3500 Lenox Rd NE,,Atlanta,GA,30326,,888-758-4389,E,,Public,24 hours daily,,,,,,2,,,ChargePoint Network,https://www.chargepoint.com,GPS,33.852015,-84.366524,3/2/2026,81677,2026-03-02 01:21:34 UTC,,,,3/8/2017,,,,,J1772,US,,,,Public,,public,,,,,,,,,,,,,,,,,,,,FALSE,,,,,,,,,FALSE,
CNG,Atlanta Gas Light - Atlanta Service Center,2397 Brannen Rd SE,,Atlanta,GA,30316,,,E,,Private,,,,Q,3600,,,,,,,200-9,33.713897,-84.307446,1/13/2025,82098,2025-11-06 18:09:36 UTC,T,,,3/8/2019,,HD,,,,US,,,,Privé,,private,,,UTILITY,1,,,,,,,,,,,Q,3600,HD,,,,,,,,,,,HD,,
ELEC,CHARGER 1 LVR LIFE LVR 2,1270 Lifes Way,In parking garage,Marietta,GA,30062,,888-758-4389,E,,Public,24 hours daily,,,,,,2,,,ChargePoint Network,https://www.chargepoint.com,GPS,33.934997,-84.515678,3/2/2026,82239,2026-03-02 01:26:08 UTC,,,,4/8/2017,,,,,J1772,US,,,,Public,,public,,,,,,,,,,,,,,,,,,,,FALSE,,,,,,,,,FALSE,
ELEC,MARIETTA ROOT ST,Dobbs Street Northwest,Located in the parking lot next to The Root House Museum,Marietta,GA,30060,,888-758-4389,E,,Public,24 hours daily,,,,,,2,,,ChargePoint Network,https://www.chargepoint.com,GPS,33.95454,-84.552158,3/2/2026,82372,2026-03-02 01:26:02 UTC,,,,4/22/2017,,,,,J1772,US,,,,Public,,public,,,,,,,,,,,,,,,,,,,,FALSE,,,,,,,,,FALSE,
ELEC,AVALON CHARGE 7000 WEST,5185 1st St,Located near the front entrance of parking garage,Alpharetta,GA,30009,,888-758-4389,T,2/23/2026,TEMPORARILY UNAVAILABLE (Public),24 hours daily,,,,,,2,,,ChargePoint Network,https://www.chargepoint.com,GPS,34.071339,-84.274664,3/2/2026,82444,2026-03-02 01:26:02 UTC,,,,4/28/2017,,,,,J1772,US,,,,TEMPORAIREMENT SUSPENDU (Public),,public,,,,,,,,,,,,,,,,,,,,FALSE,,,,,,,,,FALSE,
ELEC,GEORGIA POWER GPC METTER L2,1118  S Lewis St,Parker's Gas Station,Metter,GA,30439,,888-758-4389,E,,Public,24 hours daily,,,,,,2,,,ChargePoint Network,https://www.chargepoint.com,GPS,32.378924,-82.062491,3/2/2026,82485,2026-03-02 01:17:47 UTC,,,,5/2/2017,,,,,J1772,US,,,,Public,,public,,,,,,,,,,,,,,,,,,,,FALSE,,,,,,,,,FALSE,
E85,RaceTrac #548,2466 Delk Rd SE,,Marietta,GA,30067,,770-933-2060,E,,Public,24 hours daily,A Cash D Debit M V Voyager Wright_Exp,,,,,,,,,,200-9,33.921807,-84.481152,10/13/2025,82509,2026-02-02 23:16:24 UTC,P,,,5/15/2017,,,,FALSE,,US,,,,Public,,public,,,CONVENIENCE_STORE,,,,,,,,,,,,,,,,,FALSE,,,,,,,,MD,,
ELEC,715PTREE STATION2,715 Peachtree St NE,,Atlanta,GA,30308,,888-758-4389,E,,Public,24 hours daily,,,,,,2,,,ChargePoint Network,https://www.chargepoint.com,GPS,33.773983,-84.383568,3/2/2026,82628,2026-03-02 01:26:49 UTC,,,,5/17/2017,,,,,J1772,US,,,,Public,,public,,,,,,,,,,,,,,,,,,,,FALSE,,,,,,,,,FALSE,
ELEC,VENUE BROOKWOOD VENUE EV1,2140 Peachtree Rd NW,Back gate off of Colonial Homes Dr. Residents only.,Atlanta,GA,30309,,888-758-4389,E,,Public,24 hours daily,,,,,,2,,,ChargePoint Network,https://www.chargepoint.com,GPS,33.813539,-84.393912,3/2/2026,82695,2026-03-02 01:26:22 UTC,,,,5/24/2017,,,,,J1772,US,,,,Public,,public,,,,,,,,,,,,,,,,,,,,FALSE,,,,,,,,,FALSE,
ELEC,NORTHSIDE EV NORTHSIDE EV2,Dr Parking,Medical Personnel Only,Canton,GA,30114,,888-758-4389,E,,Public,24 hours daily,,,,,,2,,,ChargePoint Network,https://www.chargepoint.com,GPS,34.230074,-84.466138,3/2/2026,82759,2026-03-02 01:26:29 UTC,,,,5/27/2017,,,,,J1772,US,,,,Public,,public,,,,,,,,,,,,,,,,,,,,FALSE,,,,,,,,,FALSE,
ELEC,NORTHSIDE EV NORTHSIDE EV4,Parking Deck,Near entrance to the Hospital,Canton,GA,30115,,888-758-4389,E,,Public,24 hours daily,,,,,,2,,,ChargePoint Network,https://www.chargepoint.com,GPS,34.228041,-84.464699,3/2/2026,82781,2026-03-02 01:26:54 UTC,,,,5/31/2017,,,,,J1772,US,,,,Public,,public,,,,,,,,,,,,,,,,,,,,FALSE,,,,,,,,,FALSE,
ELEC,NORTHWINDS NORTHWINDS 7,2550 Northwinds Pkwy,,Alpharetta,GA,30004,,888-758-4389,E,,Public,24 hours daily,,,,,,2,,,ChargePoint Network,https://www.chargepoint.com,GPS,34.059834,-84.282836,3/2/2026,85461,2026-03-02 01:27:11 UTC,,,,6/7/2017,,,,,J1772,US,,,,Public,,public,,,,,,,,,,,,,,,,,,,,FALSE,,,,,,,,,FALSE,
ELEC,PONCE CITY MKT GARAGE LEVEL 4A,675 Ponce De Leon Ave NE,,Atlanta,GA,30308,,888-758-4389,E,,Public,24 hours daily,,,,,,2,,,ChargePoint Network,https://www.chargepoint.com,GPS,33.772522,-84.365925,3/2/2026,85622,2026-03-02 01:17:34 UTC,,,,6/21/2017,,,,,J1772,US,,,,Public,,public,,,,,,,,,,,,,,,,,,,,FALSE,,,,,,,,,FALSE,
E85,Speedway #4103,5670 Peachtree Industrial Blvd,,Norcross,GA,30071,,1-800-643-1948,E,,Public,24 hours daily,A Cash D Debit M V Voyager Wright_Exp,,,,,,,,,,200-8,33.955992,-84.217929,9/12/2024,85727,2025-12-17 20:22:02 UTC,P,,,6/15/2017,,,,FALSE,,US,,,,Public,,public,,,CONVENIENCE_STORE,,,,,,,,,,,,,,,,,FALSE,,,,,,,,,,
LPG,Ard Propane,244 N 2nd St,,Cochran,GA,31014,,478-934-4003,E,,Public - Call ahead,8am-5pm M-F; closed from 12pm-1pm for lunch,A Cash D Debit M V,,,,,,,,,,200-8,32.396008,-83.360331,9/12/2025,85788,2026-02-02 23:16:24 UTC,P,,,10/31/1996,,,FALSE,,,US,,,,Public - Appeler à l'avance,,public,CALL,,FUEL_RESELLER,,,,,,,,,ACME,,,,,,,,FALSE,,,,,,,,HD,,
ELEC,SALESFORCE TOWE STATION 2,950 East Paces Ferry Rd.,Parking deck level P5,Atlanta,GA,30326,,888-758-4389,E,,Public,24 hours daily,,,,,,2,,,ChargePoint Network,https://www.chargepoint.com,GPS,33.847675,-84.357445,3/2/2026,85905,2026-03-02 01:26:53 UTC,,,,7/14/2017,,,,,J1772,US,,,,Public,,public,,,,,,,,,,,,,,,,,,,,FALSE,,,,,,,,,FALSE,
ELEC,DELTA AIR LINES CAMP CREEK 5,3939 North West Drive,,College Park,GA,30337,,888-758-4389,E,,Public,24 hours daily,,,,,,2,,,ChargePoint Network,https://www.chargepoint.com,GPS,33.645968,-84.461371,3/2/2026,85933,2026-03-02 01:23:53 UTC,,,,7/18/2017,,,,,J1772,US,,,,Public,,public,,,,,,,,,,,,,,,,,,,,FALSE,,,,,,,,,FALSE,
ELEC,Mountain View Nissan,1706 E Walnut Ave,,Dalton,GA,30721,,706-459-3600,E,,Public,Dealership business hours,,,,,,1,,,Non-Networked,,GPS,34.76020843,-84.94056611,1/13/2026,85959,2026-02-02 23:16:24 UTC,P,,,1/1/2023,,,,,J1772,US,,,,Public,,public,,,CAR_DEALER,,,,,,,Free,,,,,,,,,,TRUE,,,,,,,,LD,FALSE,
ELEC,Fairfield Inn & Suites,1494 E Oglethorpe Hwy,,Hinesville,GA,31313,,912-876-2003,E,,Public,24 hours daily,A Cash D M V,,,,,2,,,Non-Networked,,200-8,31.857062,-81.570245,8/15/2024,86865,2025-02-12 00:16:32 UTC,P,,,8/29/2017,,,,,J1772,US,,,,Public,,public,,,HOTEL,,,,,,,$25; free for guests,,,,,,,,,,TRUE,,,,,,,,LD,FALSE,
ELEC,PURITAN MILL PURITAN MILL EV,916 Joseph E Lowery Blvd NW,,Atlanta,GA,30318,,888-758-4389,E,,Public,Mon: 7:00am-10:30pm; Tue: 7:00am-10:30pm; Wed: 7:00am-10:30pm; Thu: 7:00am-10:30pm; Fri: 7:00am-10:30pm; Sat: 7:00am-10:30pm; Sun: 7:00am-10:30pm,,,,,,2,,,ChargePoint Network,https://www.chargepoint.com,GPS,33.780224,-84.418301,3/2/2026,87767,2026-03-02 01:28:47 UTC,,,,9/26/2017,,,,,J1772,US,,,,Public,,public,,,,,,,,,,,,,,,,,,,,FALSE,,,,,,,,,FALSE,
LPG,Fulton County School System - North Transportation Facility,410 S Main St,,Alpharetta,GA,30009,,,E,,Private,,,,,,,,,,,,200-9,34.065384,-84.305365,1/13/2025,87968,2025-02-12 00:16:32 UTC,LG,,,7/27/2017,,,,,,US,,,,Privé,,private,,,FLEET_GARAGE,,,,,,,,,,,,,,,,,,,,,,,,,MD,,
LPG,Fulton County School System - South Transportation Facility,97 Heath St,,Fairburn,GA,30213,,,E,,Private,,,,,,,,,,,,200-8,33.569291,-84.566202,1/13/2025,87969,2025-02-12 00:16:32 UTC,LG,,,7/27/2017,,,,,,US,,,,Privé,,private,,,FLEET_GARAGE,,,,,,,,,,,,,,,,,,,,,,,,,MD,,
E85,RaceTrac #298,1 Amlajack Blvd,,Newnan,GA,30265,,770-252-1409,E,,Public,24 hours daily,A Cash D Debit M V Voyager Wright_Exp,,,,,,,,,,200-9,33.397465,-84.753601,10/13/2025,88124,2026-02-02 23:16:24 UTC,P,,,10/15/2017,,,,FALSE,,US,,,,Public,,public,,,CONVENIENCE_STORE,,,,,,,,,,,,,,,,,FALSE,,,,,,,,MD,,
E85,RaceTrac #2318,2722 GA-54,,Peachtree City,GA,30269,,770-487-7663,E,,Public,24 hours daily,A Cash D Debit M V Voyager Wright_Exp,,,,,,,,,,200-9,33.396118,-84.60109,10/13/2025,88125,2026-02-02 23:16:24 UTC,P,,,10/15/2017,,,,FALSE,,US,,,,Public,,public,,,CONVENIENCE_STORE,,,,,,,,,,,,,,,,,FALSE,,,,,,,,MD,,
ELEC,N DRUID HILLS STATION 1,7 Executive Park Dr NE,Trash compactor,Atlanta,GA,30329,,888-758-4389,E,,Public,24 hours daily,,,,,,2,,,ChargePoint Network,https://www.chargepoint.com,GPS,33.829968,-84.338503,3/2/2026,88371,2026-03-02 01:29:49 UTC,,,,11/8/2017,,,,,J1772,US,,,,Public,,public,,,,,,,,,,,,,,,,,,,,FALSE,,,,,,,,,FALSE,
ELEC,M3 CT4K 1,1715 N Brown Rd,,Lawrenceville,GA,30043,,888-758-4389,E,,Public,24 hours daily,,,,,,2,,,ChargePoint Network,https://www.chargepoint.com,GPS,33.995431,-84.074338,3/2/2026,89729,2026-03-02 01:30:54 UTC,,,,12/19/2017,,,,,J1772,US,,,,Public,,public,,,,,,,,,,,,,,,,,,,,FALSE,,,,,,,,,FALSE,
ELEC,Greystone at Maple Ridge,7777 Schomburg Rd,Phase I,Columbus,GA,31909,,706-221-7778,E,,Public,24 hours daily,,,,,,2,,,Non-Networked,,200-9,32.560205,-84.907262,8/15/2024,89766,2025-02-12 00:16:32 UTC,P,,,12/12/2017,,,,,J1772,US,,,,Public,,public,,,PARKING_LOT,,,,,,,Free,,,,,,,,,,FALSE,,,,,,,,LD,FALSE,
E85,RaceTrac #2331,110 Old Doss Dr,,Canton,GA,30115,,678-493-3577,E,,Public,24 hours daily,A Cash Checks D Debit M V Voyager Wright_Exp,,,,,,,,,,200-9,34.237942,-84.45694,10/13/2025,91931,2026-02-02 23:16:24 UTC,P,,,1/15/2018,,,,FALSE,,US,,,,Public,,public,,,CONVENIENCE_STORE,,,,,,,,,,,,,,,,,FALSE,,,,,,,,MD,,
E85,RaceTrac #2351,1020 E Butler Pkwy,,Gainesville,GA,30501,,770-287-1038,E,,Public,24 hours daily,A Cash Checks D Debit M V Voyager Wright_Exp,,,,,,,,,,200-6,34.286422,-83.810335,9/12/2025,91932,2026-02-02 23:16:24 UTC,P,,,1/15/2018,,,,FALSE,,US,,,,Public,,public,,,CONVENIENCE_STORE,,,,,,,,,,,,,,,,,FALSE,,,,,,,,MD,,
E85,RaceTrac #2330,1744 Georgia 138,,Conyers,GA,30058,,770-760-8224,E,,Public,24 hours daily,A Cash D Debit M V,,,,,,,,,,200-9,33.669542,-83.987677,9/12/2025,92039,2026-02-02 23:16:24 UTC,P,,,2/15/2018,,,,FALSE,,US,,,,Public,,public,,,CONVENIENCE_STORE,,,,,,,,,,,,,,,,,FALSE,,,,,,,,MD,,
E85,Speedway #4102,3120 Sugarloaf Pkwy,,Lawrenceville,GA,30045,,1-800-643-1948,E,,Public,24 hours daily,A Cash D Debit M V,,,,,,,,,,200-9,33.919554,-84.006325,9/12/2024,92075,2025-12-17 20:22:02 UTC,P,,,2/15/2018,,,,FALSE,,US,,,,Public,,public,,,CONVENIENCE_STORE,,,,,,,,,,,,,,,,,FALSE,,,,,,,,,,
